{"type":"FeatureCollection","features":[{"type":"Feature","properties":{"name":"Hamburg-Harburg","id":8000147,"weight":30,"mean":96},"geometry":{"type":"Point","coordinates":[9.991701,53.455908]}},{"type":"Feature","properties":{"name":"Uelzen","id":8000168,"weight":30,"mean":84},"geometry":{"type":"Point","coordinates":[10.553053,52.969781]}},{"type":"Feature","properties":{"name":"Lüneburg","id":8000238,"weight":30,"mean":36},"geometry":{"type":"Point","coordinates":[10.41989,53.249656]}},{"type":"Feature","properties":{"name":"Lübeck St Jürgen","id":8003774,"weight":220,"mean":0},"geometry":{"type":"Point","coordinates":[10.702942,53.842321]}},{"type":"Feature","properties":{"name":"Bad Schandau","id":8010022,"weight":20,"mean":46.666666666666664},"geometry":{"type":"Point","coordinates":[14.139322,50.918835]}},{"type":"Feature","properties":{"name":"Blankenberg(Meckl)","id":8010051,"weight":240,"mean":0},"geometry":{"type":"Point","coordinates":[11.71529,53.772305]}},{"type":"Feature","properties":{"name":"Borsdorf(Sachs)","id":8010059,"weight":2250,"mean":8.863636363636363},"geometry":{"type":"Point","coordinates":[12.541165,51.345705]}},{"type":"Feature","properties":{"name":"Bützow","id":8010066,"weight":375,"mean":12},"geometry":{"type":"Point","coordinates":[11.998194,53.837114]}},{"type":"Feature","properties":{"name":"Grevesmühlen","id":8010141,"weight":220,"mean":0},"geometry":{"type":"Point","coordinates":[11.184712,53.857468]}},{"type":"Feature","properties":{"name":"Lietzow(Rügen)","id":8010210,"weight":205,"mean":0},"geometry":{"type":"Point","coordinates":[13.510002,54.480965]}},{"type":"Feature","properties":{"name":"Malchin","id":8010227,"weight":495,"mean":0},"geometry":{"type":"Point","coordinates":[12.761041,53.743417]}},{"type":"Feature","properties":{"name":"Pirna","id":8010272,"weight":20,"mean":140},"geometry":{"type":"Point","coordinates":[13.928881,50.962623]}},{"type":"Feature","properties":{"name":"Pratau","id":8010281,"weight":220,"mean":70},"geometry":{"type":"Point","coordinates":[12.635964,51.843256]}},{"type":"Feature","properties":{"name":"Priemerburg","id":8010284,"weight":480,"mean":0},"geometry":{"type":"Point","coordinates":[12.223022,53.795979]}},{"type":"Feature","properties":{"name":"Radebeul Ost","id":8010292,"weight":570,"mean":0},"geometry":{"type":"Point","coordinates":[13.680163,51.098294]}},{"type":"Feature","properties":{"name":"Rövershagen","id":8010300,"weight":250,"mean":0},"geometry":{"type":"Point","coordinates":[12.247446,54.175568]}},{"type":"Feature","properties":{"name":"Teterow","id":8010348,"weight":490,"mean":0},"geometry":{"type":"Point","coordinates":[12.577966,53.768437]}},{"type":"Feature","properties":{"name":"Velgast","id":8010355,"weight":250,"mean":0},"geometry":{"type":"Point","coordinates":[12.803137,54.277316]}},{"type":"Feature","properties":{"name":"Altefähr","id":8011017,"weight":210,"mean":0},"geometry":{"type":"Point","coordinates":[13.14101,54.322927]}},{"type":"Feature","properties":{"name":"Altenbach","id":8011018,"weight":1670,"mean":10},"geometry":{"type":"Point","coordinates":[12.682324,51.355868]}},{"type":"Feature","properties":{"name":"Altenwillershagen","id":8011027,"weight":250,"mean":0},"geometry":{"type":"Point","coordinates":[12.572818,54.259406]}},{"type":"Feature","properties":{"name":"Bentwisch","id":8011140,"weight":10,"mean":0},"geometry":{"type":"Point","coordinates":[12.210506,54.117193]}},{"type":"Feature","properties":{"name":"Bergwitz","id":8011150,"weight":240,"mean":96},"geometry":{"type":"Point","coordinates":[12.576213,51.803696]}},{"type":"Feature","properties":{"name":"Bindfelde","id":8011190,"weight":430,"mean":0},"geometry":{"type":"Point","coordinates":[11.898035,52.584561]}},{"type":"Feature","properties":{"name":"Bobitz","id":8011215,"weight":220,"mean":0},"geometry":{"type":"Point","coordinates":[11.3628,53.804534]}},{"type":"Feature","properties":{"name":"Brehna","id":8011260,"weight":40,"mean":30},"geometry":{"type":"Point","coordinates":[12.222163,51.554457]}},{"type":"Feature","properties":{"name":"Buchenhorst","id":8011281,"weight":250,"mean":0},"geometry":{"type":"Point","coordinates":[12.712682,54.268211]}},{"type":"Feature","properties":{"name":"Burgkemnitz","id":8011296,"weight":220,"mean":166.66666666666666},"geometry":{"type":"Point","coordinates":[12.407167,51.688818]}},{"type":"Feature","properties":{"name":"Dahlen(Sachs)","id":8011339,"weight":820,"mean":2.2222222222222223},"geometry":{"type":"Point","coordinates":[12.984253,51.350972]}},{"type":"Feature","properties":{"name":"Dessau Süd","id":8011361,"weight":10,"mean":180},"geometry":{"type":"Point","coordinates":[12.236455,51.802196]}},{"type":"Feature","properties":{"name":"Eggesin","id":8011456,"weight":50,"mean":0},"geometry":{"type":"Point","coordinates":[14.073046,53.681825]}},{"type":"Feature","properties":{"name":"Engelsdorf","id":8011491,"weight":2210,"mean":8.863636363636363},"geometry":{"type":"Point","coordinates":[12.477634,51.343946]}},{"type":"Feature","properties":{"name":"Gelbensande","id":8011611,"weight":250,"mean":0},"geometry":{"type":"Point","coordinates":[12.304809,54.198696]}},{"type":"Feature","properties":{"name":"Gerichshain","id":8011626,"weight":1670,"mean":9.863013698630137},"geometry":{"type":"Point","coordinates":[12.587444,51.35388]}},{"type":"Feature","properties":{"name":"Glaubitz(Riesa)","id":8011637,"weight":580,"mean":0},"geometry":{"type":"Point","coordinates":[13.365435,51.317562]}},{"type":"Feature","properties":{"name":"Gräfenhainichen","id":8011683,"weight":240,"mean":192},"geometry":{"type":"Point","coordinates":[12.460037,51.724731]}},{"type":"Feature","properties":{"name":"Grambow","id":8011689,"weight":380,"mean":0},"geometry":{"type":"Point","coordinates":[14.347457,53.417381]}},{"type":"Feature","properties":{"name":"Greppin","id":8011699,"weight":10,"mean":0},"geometry":{"type":"Point","coordinates":[12.297969,51.645358]}},{"type":"Feature","properties":{"name":"Grieben(Meckl)","id":8011702,"weight":220,"mean":0},"geometry":{"type":"Point","coordinates":[11.068569,53.851233]}},{"type":"Feature","properties":{"name":"Stralsund-Grünhufe","id":8011778,"weight":250,"mean":0},"geometry":{"type":"Point","coordinates":[13.04393,54.304298]}},{"type":"Feature","properties":{"name":"Herrnburg","id":8011864,"weight":220,"mean":0},"geometry":{"type":"Point","coordinates":[10.760008,53.837707]}},{"type":"Feature","properties":{"name":"Hohenthurm","id":8011905,"weight":60,"mean":85.71428571428571},"geometry":{"type":"Point","coordinates":[12.097881,51.512359]}},{"type":"Feature","properties":{"name":"Jeßnitz(Anh)","id":8011961,"weight":10,"mean":180},"geometry":{"type":"Point","coordinates":[12.277353,51.682552]}},{"type":"Feature","properties":{"name":"Königstein(Sächs Schw)","id":8012072,"weight":20,"mean":0},"geometry":{"type":"Point","coordinates":[14.078899,50.919445]}},{"type":"Feature","properties":{"name":"Kühren","id":8012117,"weight":820,"mean":2.142857142857143},"geometry":{"type":"Point","coordinates":[12.833196,51.349341]}},{"type":"Feature","properties":{"name":"Kurort Rathen","id":8012138,"weight":20,"mean":0},"geometry":{"type":"Point","coordinates":[14.075341,50.956816]}},{"type":"Feature","properties":{"name":"Lancken","id":8012146,"weight":190,"mean":0},"geometry":{"type":"Point","coordinates":[13.607885,54.518032]}},{"type":"Feature","properties":{"name":"Landsberg(b. Halle/Saale)","id":8012147,"weight":60,"mean":94.28571428571429},"geometry":{"type":"Point","coordinates":[12.166712,51.532899]}},{"type":"Feature","properties":{"name":"Lüdersdorf(Meckl)","id":8012268,"weight":220,"mean":0},"geometry":{"type":"Point","coordinates":[10.815143,53.832924]}},{"type":"Feature","properties":{"name":"Machern(Sachs)","id":8012284,"weight":1670,"mean":10.833333333333334},"geometry":{"type":"Point","coordinates":[12.627757,51.357628]}},{"type":"Feature","properties":{"name":"Martensdorf","id":8012316,"weight":250,"mean":0},"geometry":{"type":"Point","coordinates":[12.930252,54.300918]}},{"type":"Feature","properties":{"name":"Miltern","id":8012354,"weight":430,"mean":0},"geometry":{"type":"Point","coordinates":[11.936624,52.563344]}},{"type":"Feature","properties":{"name":"Mölln(Meckl)","id":8012376,"weight":490,"mean":0},"geometry":{"type":"Point","coordinates":[13.084507,53.585939]}},{"type":"Feature","properties":{"name":"Mönchhagen","id":8012377,"weight":10,"mean":0},"geometry":{"type":"Point","coordinates":[12.225336,54.14357]}},{"type":"Feature","properties":{"name":"Muldenstein","id":8012409,"weight":220,"mean":167.3684210526316},"geometry":{"type":"Point","coordinates":[12.354047,51.667787]}},{"type":"Feature","properties":{"name":"Neetzka","id":8012421,"weight":530,"mean":0},"geometry":{"type":"Point","coordinates":[13.500838,53.533518]}},{"type":"Feature","properties":{"name":"Neu Wokern","id":8012436,"weight":480,"mean":0},"geometry":{"type":"Point","coordinates":[12.500916,53.760033]}},{"type":"Feature","properties":{"name":"Nünchritz","id":8012523,"weight":580,"mean":0},"geometry":{"type":"Point","coordinates":[13.39197,51.302649]}},{"type":"Feature","properties":{"name":"Oertzenhof","id":8012555,"weight":530,"mean":0},"geometry":{"type":"Point","coordinates":[13.573119,53.518083]}},{"type":"Feature","properties":{"name":"Pasewalk Ost","id":8012610,"weight":380,"mean":0},"geometry":{"type":"Point","coordinates":[14.009312,53.50957]}},{"type":"Feature","properties":{"name":"Plüschow","id":8012651,"weight":220,"mean":0},"geometry":{"type":"Point","coordinates":[11.285845,53.837064]}},{"type":"Feature","properties":{"name":"Prora","id":8012683,"weight":10,"mean":15},"geometry":{"type":"Point","coordinates":[13.564057,54.444986]}},{"type":"Feature","properties":{"name":"Prora Ost","id":8012684,"weight":10,"mean":0},"geometry":{"type":"Point","coordinates":[13.574515,54.43006]}},{"type":"Feature","properties":{"name":"Radis","id":8012704,"weight":240,"mean":201},"geometry":{"type":"Point","coordinates":[12.504183,51.754704]}},{"type":"Feature","properties":{"name":"Rambin(Rügen)","id":8012711,"weight":210,"mean":0},"geometry":{"type":"Point","coordinates":[13.207813,54.353429]}},{"type":"Feature","properties":{"name":"Reuterstadt Stavenhagen","id":8012758,"weight":500,"mean":0},"geometry":{"type":"Point","coordinates":[12.9142,53.706919]}},{"type":"Feature","properties":{"name":"Ribnitz-Damgarten Ost","id":8012762,"weight":250,"mean":0},"geometry":{"type":"Point","coordinates":[12.487015,54.251016]}},{"type":"Feature","properties":{"name":"Ribnitz-Damgarten West","id":8012763,"weight":250,"mean":5.217391304347826},"geometry":{"type":"Point","coordinates":[12.436965,54.239176]}},{"type":"Feature","properties":{"name":"Roitzsch(Bitterf)","id":8012788,"weight":40,"mean":30},"geometry":{"type":"Point","coordinates":[12.26454,51.571167]}},{"type":"Feature","properties":{"name":"Sagard","id":8012832,"weight":190,"mean":0},"geometry":{"type":"Point","coordinates":[13.564956,54.524379]}},{"type":"Feature","properties":{"name":"Samtens","id":8012835,"weight":210,"mean":0},"geometry":{"type":"Point","coordinates":[13.290177,54.354116]}},{"type":"Feature","properties":{"name":"Sandförde","id":8012839,"weight":50,"mean":0},"geometry":{"type":"Point","coordinates":[13.971273,53.563981]}},{"type":"Feature","properties":{"name":"Sassnitz","id":8012843,"weight":95,"mean":0},"geometry":{"type":"Point","coordinates":[13.637909,54.516284]}},{"type":"Feature","properties":{"name":"Schmilka-Hirschmühle","id":8012888,"weight":20,"mean":0},"geometry":{"type":"Point","coordinates":[14.228419,50.889918]}},{"type":"Feature","properties":{"name":"Schöna","id":8012898,"weight":10,"mean":0},"geometry":{"type":"Point","coordinates":[14.234719,50.875903]}},{"type":"Feature","properties":{"name":"Schönberg(Meckl)","id":8012902,"weight":220,"mean":0},"geometry":{"type":"Point","coordinates":[10.92787,53.85338]}},{"type":"Feature","properties":{"name":"Sponholz","id":8013017,"weight":530,"mean":0},"geometry":{"type":"Point","coordinates":[13.366401,53.563854]}},{"type":"Feature","properties":{"name":"Stadt Wehlen(Sachs)","id":8013022,"weight":20,"mean":0},"geometry":{"type":"Point","coordinates":[14.032242,50.953718]}},{"type":"Feature","properties":{"name":"Stralsund Rügendamm","id":8013062,"weight":210,"mean":0},"geometry":{"type":"Point","coordinates":[13.107522,54.305322]}},{"type":"Feature","properties":{"name":"Teschenhagen","id":8013104,"weight":210,"mean":0},"geometry":{"type":"Point","coordinates":[13.374233,54.389367]}},{"type":"Feature","properties":{"name":"Torgelow","id":8013131,"weight":50,"mean":0},"geometry":{"type":"Point","coordinates":[14.008758,53.63462]}},{"type":"Feature","properties":{"name":"Ueckermünde Stadthafen","id":8013156,"weight":25,"mean":0},"geometry":{"type":"Point","coordinates":[14.052233,53.736202]}},{"type":"Feature","properties":{"name":"Ueckermünde","id":8013162,"weight":50,"mean":0},"geometry":{"type":"Point","coordinates":[14.05408,53.733923]}},{"type":"Feature","properties":{"name":"Ventschow","id":8013186,"weight":230,"mean":0},"geometry":{"type":"Point","coordinates":[11.580016,53.787208]}},{"type":"Feature","properties":{"name":"Wolfen(Bitterfeld)","id":8013335,"weight":10,"mean":180},"geometry":{"type":"Point","coordinates":[12.279563,51.661159]}},{"type":"Feature","properties":{"name":"Wurzen","id":8013361,"weight":1535,"mean":0},"geometry":{"type":"Point","coordinates":[12.738972,51.364418]}},{"type":"Feature","properties":{"name":"Bennewitz","id":8013362,"weight":1670,"mean":9.04109589041096},"geometry":{"type":"Point","coordinates":[12.70843,51.355926]}},{"type":"Feature","properties":{"name":"Zerrenthin","id":8013393,"weight":380,"mean":0},"geometry":{"type":"Point","coordinates":[14.097895,53.49939]}},{"type":"Feature","properties":{"name":"Oschatz","id":8013461,"weight":720,"mean":0},"geometry":{"type":"Point","coordinates":[13.104093,51.31166]}},{"type":"Feature","properties":{"name":"Grambow(Gr)","id":8089123,"weight":0},"geometry":{"type":"Point","coordinates":[14.3734,53.415807]}},{"type":"Feature","properties":{"name":"Wiebestr./Huttenstr. (Berlin)","id":9001103,"weight":12000,"mean":36.326530612244895},"geometry":{"type":"Point","coordinates":[13.320255,52.528315]}},{"type":"Feature","properties":{"name":"Reuchlinstr. (Berlin)","id":9001151,"weight":12000,"mean":37.55102040816327},"geometry":{"type":"Point","coordinates":[13.323632,52.5279]}},{"type":"Feature","properties":{"name":"Neues Ufer (Berlin)","id":9001152,"weight":12000,"mean":38.775510204081634},"geometry":{"type":"Point","coordinates":[13.315976,52.5291]}},{"type":"Feature","properties":{"name":"Ilsenburger Str. (Berlin)","id":9001154,"weight":12000,"mean":40.945945945945944},"geometry":{"type":"Point","coordinates":[13.309834,52.525753]}},{"type":"Feature","properties":{"name":"Goslarer Platz (Berlin)","id":9001155,"weight":12000,"mean":43.78378378378378},"geometry":{"type":"Point","coordinates":[13.314256,52.525793]}},{"type":"Feature","properties":{"name":"Fennbrücke (Berlin)","id":9001200,"weight":2600,"mean":93.6},"geometry":{"type":"Point","coordinates":[13.360958,52.538396]}},{"type":"Feature","properties":{"name":"S+U Westhafen (Berlin)","id":9001201,"weight":23470,"mean":35.16393442622951},"geometry":{"type":"Point","coordinates":[13.343837,52.536183]}},{"type":"Feature","properties":{"name":"Am Nordhafen (Berlin)","id":9001202,"weight":12020,"mean":35.342465753424655},"geometry":{"type":"Point","coordinates":[13.36361,52.53885]}},{"type":"Feature","properties":{"name":"Döberitzer Str. (Berlin)","id":9001203,"weight":2600,"mean":74.4},"geometry":{"type":"Point","coordinates":[13.368107,52.530665]}},{"type":"Feature","properties":{"name":"Lehrter Str./Invalidenstr. (Berlin)","id":9001204,"weight":16455,"mean":68.15217391304348},"geometry":{"type":"Point","coordinates":[13.365223,52.525764]}},{"type":"Feature","properties":{"name":"Heidestr. (Berlin)","id":9001206,"weight":1300,"mean":67.2},"geometry":{"type":"Point","coordinates":[13.365509,52.533322]}},{"type":"Feature","properties":{"name":"Friedrich-Krause-Ufer (Berlin)","id":9001252,"weight":2600,"mean":76.8},"geometry":{"type":"Point","coordinates":[13.361216,52.536739]}},{"type":"Feature","properties":{"name":"Turmstr./Waldstr. (Berlin)","id":9002101,"weight":6400,"mean":8.571428571428571},"geometry":{"type":"Point","coordinates":[13.33043,52.527104]}},{"type":"Feature","properties":{"name":"Turmstr./Beusselstr. (Berlin)","id":9002102,"weight":32840,"mean":45.50561797752809},"geometry":{"type":"Point","coordinates":[13.328743,52.527339]}},{"type":"Feature","properties":{"name":"Wittstocker Str. (Berlin)","id":9002151,"weight":9690,"mean":61.46341463414634},"geometry":{"type":"Point","coordinates":[13.32851,52.530856]}},{"type":"Feature","properties":{"name":"Quitzowstr. (Berlin)","id":9002200,"weight":16270,"mean":43.10679611650485},"geometry":{"type":"Point","coordinates":[13.356396,52.535294]}},{"type":"Feature","properties":{"name":"U Birkenstr. (Berlin)","id":9002201,"weight":12010,"mean":83.26530612244898},"geometry":{"type":"Point","coordinates":[13.341417,52.532229]}},{"type":"Feature","properties":{"name":"Wilsnacker Str. (Berlin)","id":9002202,"weight":10430,"mean":36.241610738255034},"geometry":{"type":"Point","coordinates":[13.351406,52.526363]}},{"type":"Feature","properties":{"name":"Stendaler Str. (Berlin)","id":9002203,"weight":16270,"mean":40.77669902912621},"geometry":{"type":"Point","coordinates":[13.350532,52.532458]}},{"type":"Feature","properties":{"name":"Perleberger Brücke (Berlin)","id":9002204,"weight":1890,"mean":1.7647058823529411},"geometry":{"type":"Point","coordinates":[13.358033,52.535329]}},{"type":"Feature","properties":{"name":"Turmstr./Lübecker Str. (Berlin)","id":9002205,"weight":13590,"mean":27.61904761904762},"geometry":{"type":"Point","coordinates":[13.345508,52.526251]}},{"type":"Feature","properties":{"name":"Turmstr./Rathenower Str. (Berlin)","id":9002206,"weight":10430,"mean":72.88590604026845},"geometry":{"type":"Point","coordinates":[13.354805,52.526684]}},{"type":"Feature","properties":{"name":"Stromstr. (Berlin)","id":9002207,"weight":12020,"mean":38.775510204081634},"geometry":{"type":"Point","coordinates":[13.344006,52.529189]}},{"type":"Feature","properties":{"name":"Birkenstr./Rathenower Str. (Berlin)","id":9002254,"weight":4250,"mean":48},"geometry":{"type":"Point","coordinates":[13.352907,52.529654]}},{"type":"Feature","properties":{"name":"Seydlitzstr. (Berlin)","id":9002255,"weight":6870,"mean":47.608695652173914},"geometry":{"type":"Point","coordinates":[13.364158,52.527035]}},{"type":"Feature","properties":{"name":"Poststadion (Berlin)","id":9002256,"weight":4250,"mean":73},"geometry":{"type":"Point","coordinates":[13.362431,52.530281]}},{"type":"Feature","properties":{"name":"Kruppstr. (Berlin)","id":9002257,"weight":4250,"mean":61},"geometry":{"type":"Point","coordinates":[13.359639,52.533387]}},{"type":"Feature","properties":{"name":"Havelberger Str. (Berlin)","id":9002258,"weight":12020,"mean":36.986301369863014},"geometry":{"type":"Point","coordinates":[13.347673,52.531025]}},{"type":"Feature","properties":{"name":"U Hansaplatz (Berlin)","id":9003101,"weight":17010,"mean":58.84615384615385},"geometry":{"type":"Point","coordinates":[13.342165,52.518111]}},{"type":"Feature","properties":{"name":"S Bellevue (Berlin)","id":9003102,"weight":15810,"mean":48.47161572052402},"geometry":{"type":"Point","coordinates":[13.347098,52.519951]}},{"type":"Feature","properties":{"name":"S Tiergarten (Berlin)","id":9003103,"weight":16250,"mean":60.50632911392405},"geometry":{"type":"Point","coordinates":[13.336235,52.513963]}},{"type":"Feature","properties":{"name":"U Turmstr. (Berlin)","id":9003104,"weight":11570,"mean":33.65853658536585},"geometry":{"type":"Point","coordinates":[13.341417,52.525938]}},{"type":"Feature","properties":{"name":"Bachstr. (Berlin)","id":9003105,"weight":440,"mean":315},"geometry":{"type":"Point","coordinates":[13.339573,52.518598]}},{"type":"Feature","properties":{"name":"Alt-Moabit/Gotzkowskystr. (Berlin)","id":9003107,"weight":18420,"mean":69.79591836734694},"geometry":{"type":"Point","coordinates":[13.329892,52.523929]}},{"type":"Feature","properties":{"name":"Solinger Str. (Berlin)","id":9003152,"weight":5440,"mean":88.57142857142857},"geometry":{"type":"Point","coordinates":[13.335728,52.520547]}},{"type":"Feature","properties":{"name":"Rathaus Tiergarten (Berlin)","id":9003155,"weight":29270,"mean":36.070381231671554},"geometry":{"type":"Point","coordinates":[13.339166,52.526062]}},{"type":"Feature","properties":{"name":"Ottostr. (Berlin)","id":9003156,"weight":6590,"mean":112.63157894736842},"geometry":{"type":"Point","coordinates":[13.334925,52.524681]}},{"type":"Feature","properties":{"name":"U Turmstr. (Berlin) [Bus Turmstr.]","id":9003174,"weight":33025,"mean":27.63157894736842},"geometry":{"type":"Point","coordinates":[13.341988,52.5263]}},{"type":"Feature","properties":{"name":"U Turmstr. (Berlin) [Bus Stromstr.]","id":9003175,"weight":540,"mean":280},"geometry":{"type":"Point","coordinates":[13.343019,52.525812]}},{"type":"Feature","properties":{"name":"U Turmstr. (Berlin) [Bus Alt-Moabit]","id":9003176,"weight":15320,"mean":75.21739130434783},"geometry":{"type":"Point","coordinates":[13.341934,52.52551]}},{"type":"Feature","properties":{"name":"Zinzendorfstr. (Berlin)","id":9003181,"weight":5440,"mean":92.38095238095238},"geometry":{"type":"Point","coordinates":[13.331506,52.522221]}},{"type":"Feature","properties":{"name":"S+U Berlin Hauptbahnhof (tief)","id":9003200,"weight":2865,"mean":39.55555555555556},"geometry":{"type":"Point","coordinates":[13.369386,52.525042]}},{"type":"Feature","properties":{"name":"S+U Berlin Hauptbahnhof","id":9003201,"weight":106390,"mean":55.61643835616438},"geometry":{"type":"Point","coordinates":[13.368924,52.525847]}},{"type":"Feature","properties":{"name":"Kirchstr./Alt-Moabit (Berlin)","id":9003202,"weight":6980,"mean":128.4375},"geometry":{"type":"Point","coordinates":[13.349582,52.524542]}},{"type":"Feature","properties":{"name":"Alt-Moabit/Rathenower Str. (Berlin)","id":9003203,"weight":13160,"mean":100.3921568627451},"geometry":{"type":"Point","coordinates":[13.35707,52.523692]}},{"type":"Feature","properties":{"name":"Kleiner Tiergarten (Berlin)","id":9003204,"weight":11060,"mean":125.625},"geometry":{"type":"Point","coordinates":[13.345764,52.52499]}},{"type":"Feature","properties":{"name":"Paulstr. (Berlin)","id":9003251,"weight":6180,"mean":95.0561797752809},"geometry":{"type":"Point","coordinates":[13.355662,52.520069]}},{"type":"Feature","properties":{"name":"Schloss Bellevue (Berlin)","id":9003252,"weight":15270,"mean":198.2198952879581},"geometry":{"type":"Point","coordinates":[13.354203,52.516715]}},{"type":"Feature","properties":{"name":"Haus der Kulturen der Welt (Berlin)","id":9003253,"weight":9090,"mean":269.4117647058824},"geometry":{"type":"Point","coordinates":[13.363364,52.517598]}},{"type":"Feature","properties":{"name":"U Bundestag (Berlin)","id":9003254,"weight":2400,"mean":0},"geometry":{"type":"Point","coordinates":[13.373454,52.519908]}},{"type":"Feature","properties":{"name":"Clara-Jaschke-Str. (Berlin)","id":9003255,"weight":6255,"mean":0},"geometry":{"type":"Point","coordinates":[13.366052,52.524928]}},{"type":"Feature","properties":{"name":"Spenerstr. (Berlin)","id":9003256,"weight":6980,"mean":135},"geometry":{"type":"Point","coordinates":[13.353543,52.524002]}},{"type":"Feature","properties":{"name":"Lesser-Ury-Weg (Berlin)","id":9003257,"weight":20670,"mean":51.55555555555556},"geometry":{"type":"Point","coordinates":[13.361978,52.524211]}},{"type":"Feature","properties":{"name":"Lüneburger Str. (Berlin)","id":9003259,"weight":6845},"geometry":{"type":"Point","coordinates":[13.36165,52.523136]}},{"type":"Feature","properties":{"name":"Großer Stern (Berlin)","id":9004101,"weight":20710,"mean":162.75590551181102},"geometry":{"type":"Point","coordinates":[13.350177,52.515143]}},{"type":"Feature","properties":{"name":"Reichstag/Bundestag (Berlin)","id":9004104,"weight":9090,"mean":262.94117647058823},"geometry":{"type":"Point","coordinates":[13.37648,52.517716]}},{"type":"Feature","properties":{"name":"Platz der Republik (Berlin)","id":9004105,"weight":9090,"mean":266.47058823529414},"geometry":{"type":"Point","coordinates":[13.370442,52.517786]}},{"type":"Feature","properties":{"name":"Nordische Botschaften/Adenauer-Stiftung (Berlin)","id":9004151,"weight":27340,"mean":139.25925925925927},"geometry":{"type":"Point","coordinates":[13.351406,52.509593]}},{"type":"Feature","properties":{"name":"Hertzallee (Berlin)","id":9004181,"weight":50820,"mean":17.142857142857142},"geometry":{"type":"Point","coordinates":[13.332615,52.509231]}},{"type":"Feature","properties":{"name":"Budapester Str. (Berlin)","id":9005101,"weight":6630,"mean":68.45070422535211},"geometry":{"type":"Point","coordinates":[13.345672,52.506567]}},{"type":"Feature","properties":{"name":"Corneliusbrücke (Berlin)","id":9005102,"weight":6630,"mean":78.59154929577464},"geometry":{"type":"Point","coordinates":[13.348665,52.50762]}},{"type":"Feature","properties":{"name":"Schillstr. (Berlin)","id":9005103,"weight":29420,"mean":146.93548387096774},"geometry":{"type":"Point","coordinates":[13.349926,52.503103]}},{"type":"Feature","properties":{"name":"Lützowplatz (Berlin)","id":9005105,"weight":29940,"mean":147.94736842105263},"geometry":{"type":"Point","coordinates":[13.351557,52.5049]}},{"type":"Feature","properties":{"name":"Tiergartenstr. (Berlin)","id":9005150,"weight":6630,"mean":88.28571428571429},"geometry":{"type":"Point","coordinates":[13.361942,52.509706]}},{"type":"Feature","properties":{"name":"Gedenkstätte Dt. Widerstand (Berlin)","id":9005152,"weight":9230,"mean":121.9047619047619},"geometry":{"type":"Point","coordinates":[13.363292,52.505736]}},{"type":"Feature","properties":{"name":"Köbisstr. (Berlin)","id":9005154,"weight":5770,"mean":242.5},"geometry":{"type":"Point","coordinates":[13.356266,52.507165]}},{"type":"Feature","properties":{"name":"Hiroshimasteg (Berlin)","id":9005155,"weight":9230,"mean":113.80952380952381},"geometry":{"type":"Point","coordinates":[13.35746,52.506729]}},{"type":"Feature","properties":{"name":"Bayreuther Str. (Berlin)","id":9005156,"weight":9090,"mean":247.05882352941177},"geometry":{"type":"Point","coordinates":[13.343958,52.50443]}},{"type":"Feature","properties":{"name":"U Kurfürstenstr. (Berlin)","id":9005201,"weight":32610,"mean":101.66666666666667},"geometry":{"type":"Point","coordinates":[13.362814,52.49981]}},{"type":"Feature","properties":{"name":"Lützowstr./Potsdamer Str. (Berlin)","id":9005202,"weight":20880,"mean":131.25},"geometry":{"type":"Point","coordinates":[13.366003,52.503422]}},{"type":"Feature","properties":{"name":"Potsdamer Brücke (Berlin)","id":9005205,"weight":30110,"mean":130.45714285714286},"geometry":{"type":"Point","coordinates":[13.368306,52.505948]}},{"type":"Feature","properties":{"name":"Philharmonie (Berlin)","id":9005206,"weight":8120,"mean":90.4225352112676},"geometry":{"type":"Point","coordinates":[13.368434,52.51008]}},{"type":"Feature","properties":{"name":"Philharmonie Süd (Berlin)","id":9005207,"weight":65},"geometry":{"type":"Point","coordinates":[13.370745,52.508616]}},{"type":"Feature","properties":{"name":"Varian-Fry-Str. (Berlin)","id":9005208,"weight":27280,"mean":129.55017301038063},"geometry":{"type":"Point","coordinates":[13.374302,52.509293]}},{"type":"Feature","properties":{"name":"U Mendelssohn-Bartholdy-Park (Berlin)","id":9005252,"weight":24660,"mean":64.80916030534351},"geometry":{"type":"Point","coordinates":[13.374719,52.503806]}},{"type":"Feature","properties":{"name":"Schöneberger Brücke (Berlin)","id":9005253,"weight":9230,"mean":129.04761904761904},"geometry":{"type":"Point","coordinates":[13.377751,52.502333]}},{"type":"Feature","properties":{"name":"Kulturforum (Berlin)","id":9005255,"weight":20520,"mean":147.06976744186048},"geometry":{"type":"Point","coordinates":[13.369181,52.507564]}},{"type":"Feature","properties":{"name":"Frobenstr. (Berlin)","id":9005271,"weight":160,"mean":0},"geometry":{"type":"Point","coordinates":[13.359887,52.499457]}},{"type":"Feature","properties":{"name":"S Wollankstr./Sternstr. (Berlin)","id":9006100,"weight":2610,"mean":33.6},"geometry":{"type":"Point","coordinates":[13.39154,52.565352]}},{"type":"Feature","properties":{"name":"Prinzenallee/Soldiner Str. (Berlin)","id":9006102,"weight":18610,"mean":40.471698113207545},"geometry":{"type":"Point","coordinates":[13.386241,52.558656]}},{"type":"Feature","properties":{"name":"Residenzstr./Reginhardstr. (Berlin)","id":9006103,"weight":4460,"mean":105.20325203252033},"geometry":{"type":"Point","coordinates":[13.370523,52.560142]}},{"type":"Feature","properties":{"name":"Soldiner Str./Koloniestr. (Berlin)","id":9006104,"weight":6550,"mean":15},"geometry":{"type":"Point","coordinates":[13.381051,52.560083]}},{"type":"Feature","properties":{"name":"Verlängerte Koloniestr. (Berlin)","id":9006105,"weight":2610,"mean":0},"geometry":{"type":"Point","coordinates":[13.384648,52.567545]}},{"type":"Feature","properties":{"name":"St.-Elisabeth-Kirchhof (Berlin)","id":9006153,"weight":18610,"mean":38.20754716981132},"geometry":{"type":"Point","coordinates":[13.387759,52.560498]}},{"type":"Feature","properties":{"name":"S+U Gesundbrunnen Bhf (Berlin)","id":9007102,"weight":41145,"mean":32.988357050452784},"geometry":{"type":"Point","coordinates":[13.388372,52.548637]}},{"type":"Feature","properties":{"name":"U Voltastr. (Berlin)","id":9007103,"weight":13010,"mean":8.503937007874017},"geometry":{"type":"Point","coordinates":[13.393157,52.54193]}},{"type":"Feature","properties":{"name":"S Nordbahnhof (Berlin)","id":9007104,"weight":40850,"mean":16.64},"geometry":{"type":"Point","coordinates":[13.388794,52.531673]}},{"type":"Feature","properties":{"name":"Wolliner Str. (Berlin)","id":9007105,"weight":19040,"mean":9.622641509433961},"geometry":{"type":"Point","coordinates":[13.4018,52.53977]}},{"type":"Feature","properties":{"name":"Usedomer Str./Feldstr. (Berlin)","id":9007106,"weight":4810,"mean":2.608695652173913},"geometry":{"type":"Point","coordinates":[13.387132,52.539233]}},{"type":"Feature","properties":{"name":"Ruppiner Str. (Berlin)","id":9007107,"weight":605,"mean":0},"geometry":{"type":"Point","coordinates":[13.398978,52.539085]}},{"type":"Feature","properties":{"name":"S Nordbahnhof/Gartenstr. (Berlin)","id":9007108,"weight":4825,"mean":9.23076923076923},"geometry":{"type":"Point","coordinates":[13.387492,52.53336]}},{"type":"Feature","properties":{"name":"U Bernauer Str. (Berlin)","id":9007110,"weight":25230,"mean":8.524590163934427},"geometry":{"type":"Point","coordinates":[13.396231,52.537994]}},{"type":"Feature","properties":{"name":"Lortzingstr. (Berlin)","id":9007111,"weight":6020,"mean":6.315789473684211},"geometry":{"type":"Point","coordinates":[13.399173,52.544304]}},{"type":"Feature","properties":{"name":"Gartenplatz (Berlin)","id":9007112,"weight":4810,"mean":14.347826086956522},"geometry":{"type":"Point","coordinates":[13.384276,52.538422]}},{"type":"Feature","properties":{"name":"Theodor-Heuss-Weg (Berlin)","id":9007113,"weight":4810,"mean":31.304347826086957},"geometry":{"type":"Point","coordinates":[13.385862,52.534952]}},{"type":"Feature","properties":{"name":"Gartenstr./Feldstr. (Berlin)","id":9007114,"weight":4810,"mean":30},"geometry":{"type":"Point","coordinates":[13.383818,52.536522]}},{"type":"Feature","properties":{"name":"Gedenkstätte Berliner Mauer (Berlin)","id":9007150,"weight":11610,"mean":13.46938775510204},"geometry":{"type":"Point","coordinates":[13.390484,52.535698]}},{"type":"Feature","properties":{"name":"Demminer Str. (Berlin)","id":9007154,"weight":6020,"mean":9.473684210526315},"geometry":{"type":"Point","coordinates":[13.399429,52.542611]}},{"type":"Feature","properties":{"name":"Gleimstr. (Berlin)","id":9007155,"weight":6020,"mean":5.2631578947368425},"geometry":{"type":"Point","coordinates":[13.398079,52.546042]}},{"type":"Feature","properties":{"name":"Swinemünder Str. (Berlin)","id":9007156,"weight":6020,"mean":7.368421052631579},"geometry":{"type":"Point","coordinates":[13.394921,52.545954]}},{"type":"Feature","properties":{"name":"Rügener Str. (Berlin)","id":9007157,"weight":6480,"mean":20.597014925373134},"geometry":{"type":"Point","coordinates":[13.390793,52.545014]}},{"type":"Feature","properties":{"name":"Humboldtsteg (Berlin)","id":9007159,"weight":6020,"mean":-1.0526315789473684},"geometry":{"type":"Point","coordinates":[13.381993,52.547391]}},{"type":"Feature","properties":{"name":"Grüntaler Str. (Berlin)","id":9007160,"weight":14290,"mean":0.7894736842105263},"geometry":{"type":"Point","coordinates":[13.390796,52.555358]}},{"type":"Feature","properties":{"name":"Usedomer Str. (Berlin)","id":9007181,"weight":4810,"mean":6.521739130434782},"geometry":{"type":"Point","coordinates":[13.389467,52.539916]}},{"type":"Feature","properties":{"name":"S Humboldthain (Berlin)","id":9008101,"weight":17870,"mean":11.458333333333334},"geometry":{"type":"Point","coordinates":[13.378726,52.544742]}},{"type":"Feature","properties":{"name":"U Reinickendorfer Str. (Berlin)","id":9008102,"weight":14040,"mean":17.746478873239436},"geometry":{"type":"Point","coordinates":[13.370393,52.539895]}},{"type":"Feature","properties":{"name":"Nettelbeckplatz/S Wedding (Berlin)","id":9008103,"weight":18080,"mean":38.63414634146341},"geometry":{"type":"Point","coordinates":[13.370188,52.54467]}},{"type":"Feature","properties":{"name":"U Reinickendorfer Str./Fennstr. (Berlin)","id":9008104,"weight":14990,"mean":34.01069518716577},"geometry":{"type":"Point","coordinates":[13.369412,52.541524]}},{"type":"Feature","properties":{"name":"Brunnenplatz (Berlin)","id":9008106,"weight":12060,"mean":57.567567567567565},"geometry":{"type":"Point","coordinates":[13.377996,52.550142]}},{"type":"Feature","properties":{"name":"Gerichtstr./Hochstr. (Berlin)","id":9008151,"weight":6020,"mean":4.2105263157894735},"geometry":{"type":"Point","coordinates":[13.375717,52.543258]}},{"type":"Feature","properties":{"name":"Wiesenstr. (Berlin)","id":9008153,"weight":12060,"mean":54.729729729729726},"geometry":{"type":"Point","coordinates":[13.373891,52.547593]}},{"type":"Feature","properties":{"name":"Schererstr. (Berlin)","id":9008158,"weight":6020,"mean":21.05263157894737},"geometry":{"type":"Point","coordinates":[13.369164,52.548214]}},{"type":"Feature","properties":{"name":"U Amrumer Str. (Berlin)","id":9009101,"weight":19145,"mean":50.294117647058826},"geometry":{"type":"Point","coordinates":[13.349534,52.542202]}},{"type":"Feature","properties":{"name":"U Leopoldplatz (Berlin)","id":9009102,"weight":34060,"mean":25.787965616045845},"geometry":{"type":"Point","coordinates":[13.359395,52.546493]}},{"type":"Feature","properties":{"name":"U Seestr. (Berlin)","id":9009103,"weight":31765,"mean":23.23170731707317},"geometry":{"type":"Point","coordinates":[13.351969,52.55047]}},{"type":"Feature","properties":{"name":"S+U Wedding (Berlin)","id":9009104,"weight":25840,"mean":18.89423076923077},"geometry":{"type":"Point","coordinates":[13.36606,52.542732]}},{"type":"Feature","properties":{"name":"Seestr./Amrumer Str. (Berlin)","id":9009105,"weight":24270,"mean":42.6},"geometry":{"type":"Point","coordinates":[13.344055,52.546219]}},{"type":"Feature","properties":{"name":"Gerichtstr. (Berlin)","id":9009151,"weight":6230,"mean":34.936708860759495},"geometry":{"type":"Point","coordinates":[13.362664,52.544478]}},{"type":"Feature","properties":{"name":"Rathaus Wedding (Berlin)","id":9009152,"weight":6890,"mean":46.588235294117645},"geometry":{"type":"Point","coordinates":[13.356577,52.547847]}},{"type":"Feature","properties":{"name":"Luxemburger Str. (Berlin)","id":9009153,"weight":7580,"mean":48},"geometry":{"type":"Point","coordinates":[13.35506,52.544053]}},{"type":"Feature","properties":{"name":"Samoastr. (Berlin)","id":9009154,"weight":2600,"mean":86.4},"geometry":{"type":"Point","coordinates":[13.354144,52.541601]}},{"type":"Feature","properties":{"name":"Kiautschoustr. (Berlin)","id":9009155,"weight":2600,"mean":91.2},"geometry":{"type":"Point","coordinates":[13.357665,52.541067]}},{"type":"Feature","properties":{"name":"Antwerpener Str. (Berlin)","id":9009156,"weight":5440,"mean":87.61904761904762},"geometry":{"type":"Point","coordinates":[13.348701,52.548683]}},{"type":"Feature","properties":{"name":"U Nauener Platz (Berlin)","id":9009201,"weight":20070,"mean":37.92},"geometry":{"type":"Point","coordinates":[13.367365,52.551524]}},{"type":"Feature","properties":{"name":"U Osloer Str. (Berlin)","id":9009202,"weight":36710,"mean":6.524822695035461},"geometry":{"type":"Point","coordinates":[13.373284,52.556938]}},{"type":"Feature","properties":{"name":"U Pankstr. (Berlin)","id":9009203,"weight":20050,"mean":44.054054054054056},"geometry":{"type":"Point","coordinates":[13.381837,52.552255]}},{"type":"Feature","properties":{"name":"Osloer Str./Prinzenallee (Berlin)","id":9009204,"weight":26350,"mean":38.035714285714285},"geometry":{"type":"Point","coordinates":[13.383663,52.555936]}},{"type":"Feature","properties":{"name":"Drontheimer Str. (Berlin)","id":9009206,"weight":27470,"mean":11.73913043478261},"geometry":{"type":"Point","coordinates":[13.377547,52.556529]}},{"type":"Feature","properties":{"name":"Maxstr. (Berlin)","id":9009251,"weight":8700,"mean":32.666666666666664},"geometry":{"type":"Point","coordinates":[13.363997,52.549415]}},{"type":"Feature","properties":{"name":"Exerzierstr. (Berlin)","id":9009252,"weight":220,"mean":465},"geometry":{"type":"Point","coordinates":[13.371704,52.554017]}},{"type":"Feature","properties":{"name":"Uferstr. (Berlin)","id":9009253,"weight":460,"mean":66},"geometry":{"type":"Point","coordinates":[13.378167,52.553259]}},{"type":"Feature","properties":{"name":"Ritterlandweg/Soldiner Str. (Berlin)","id":9009254,"weight":13180,"mean":12.467532467532468},"geometry":{"type":"Point","coordinates":[13.376929,52.560328]}},{"type":"Feature","properties":{"name":"U Osloer  Str. (Berlin)","id":9009272,"weight":9945,"mean":69.00692840646651},"geometry":{"type":"Point","coordinates":[13.372492,52.558016]}},{"type":"Feature","properties":{"name":"Sylter Str. (Berlin)","id":9010201,"weight":2600,"mean":156.7741935483871},"geometry":{"type":"Point","coordinates":[13.336934,52.542327]}},{"type":"Feature","properties":{"name":"Virchow-Klinikum (Berlin)","id":9010251,"weight":12585,"mean":60.63157894736842},"geometry":{"type":"Point","coordinates":[13.338739,52.543493]}},{"type":"Feature","properties":{"name":"U Rehberge (Berlin)","id":9011101,"weight":8140,"mean":12.857142857142858},"geometry":{"type":"Point","coordinates":[13.341013,52.55667]}},{"type":"Feature","properties":{"name":"U Afrikanische Str. (Berlin)","id":9011102,"weight":12680,"mean":17.01492537313433},"geometry":{"type":"Point","coordinates":[13.333502,52.560862]}},{"type":"Feature","properties":{"name":"Otawistr. (Berlin)","id":9011103,"weight":4540,"mean":52.131147540983605},"geometry":{"type":"Point","coordinates":[13.336881,52.552681]}},{"type":"Feature","properties":{"name":"Glasgower Str. (Berlin)","id":9011104,"weight":6570,"mean":62.33766233766234},"geometry":{"type":"Point","coordinates":[13.345972,52.554915]}},{"type":"Feature","properties":{"name":"Londoner Str. (Berlin)","id":9011105,"weight":9550,"mean":226.17100371747213},"geometry":{"type":"Point","coordinates":[13.342898,52.563362]}},{"type":"Feature","properties":{"name":"Türkenstr. (Berlin)","id":9011151,"weight":6880,"mean":48.705882352941174},"geometry":{"type":"Point","coordinates":[13.346593,52.553506]}},{"type":"Feature","properties":{"name":"Bristolstr. (Berlin)","id":9011152,"weight":6570,"mean":55.324675324675326},"geometry":{"type":"Point","coordinates":[13.351614,52.558562]}},{"type":"Feature","properties":{"name":"Septimerstr. (Berlin)","id":9011153,"weight":9550,"mean":224},"geometry":{"type":"Point","coordinates":[13.338708,52.564254]}},{"type":"Feature","properties":{"name":"Nachtigalplatz (Berlin)","id":9011154,"weight":4540,"mean":46.22950819672131},"geometry":{"type":"Point","coordinates":[13.334651,52.55693]}},{"type":"Feature","properties":{"name":"Transvaalstr. (Berlin)","id":9011155,"weight":4540,"mean":40.32786885245902},"geometry":{"type":"Point","coordinates":[13.338887,52.550771]}},{"type":"Feature","properties":{"name":"Louise-Schroeder-Platz (Berlin)","id":9011201,"weight":16750,"mean":20},"geometry":{"type":"Point","coordinates":[13.365603,52.556982]}},{"type":"Feature","properties":{"name":"Holländerstr./Aroser Allee (Berlin)","id":9011206,"weight":16120,"mean":179.65417867435158},"geometry":{"type":"Point","coordinates":[13.353757,52.562088]}},{"type":"Feature","properties":{"name":"Brienzer Str. (Berlin)","id":9011207,"weight":8420,"mean":-16.764705882352942},"geometry":{"type":"Point","coordinates":[13.359578,52.561949]}},{"type":"Feature","properties":{"name":"Iranische Str. (Berlin)","id":9011251,"weight":2460,"mean":14.482758620689655},"geometry":{"type":"Point","coordinates":[13.365956,52.555063]}},{"type":"Feature","properties":{"name":"Osram-Höfe (Berlin)","id":9011252,"weight":14290,"mean":22.105263157894736},"geometry":{"type":"Point","coordinates":[13.358291,52.553696]}},{"type":"Feature","properties":{"name":"S Anhalter Bahnhof (Berlin)","id":9012101,"weight":33600,"mean":62.59179265658747},"geometry":{"type":"Point","coordinates":[13.382077,52.504538]}},{"type":"Feature","properties":{"name":"U Kochstr./Checkpoint Charlie (Berlin)","id":9012102,"weight":17360,"mean":38.22222222222222},"geometry":{"type":"Point","coordinates":[13.390863,52.506673]}},{"type":"Feature","properties":{"name":"U Hallesches Tor (Berlin)","id":9012103,"weight":37570,"mean":64.34389140271493},"geometry":{"type":"Point","coordinates":[13.39176,52.497774]}},{"type":"Feature","properties":{"name":"Lindenstr./Oranienstr. (Berlin)","id":9012104,"weight":16910,"mean":85.50607287449392},"geometry":{"type":"Point","coordinates":[13.398369,52.506962]}},{"type":"Feature","properties":{"name":"Abgeordnetenhaus (Berlin)","id":9012105,"weight":11750,"mean":95},"geometry":{"type":"Point","coordinates":[13.379666,52.506553]}},{"type":"Feature","properties":{"name":"Mehringbrücke (Berlin)","id":9012106,"weight":640,"mean":44},"geometry":{"type":"Point","coordinates":[13.389263,52.497974]}},{"type":"Feature","properties":{"name":"Willy-Brandt-Haus (Berlin)","id":9012151,"weight":11750,"mean":74.44444444444444},"geometry":{"type":"Point","coordinates":[13.38744,52.500413]}},{"type":"Feature","properties":{"name":"Blücherstr. (Berlin)","id":9012152,"weight":21320,"mean":102.26086956521739},"geometry":{"type":"Point","coordinates":[13.396616,52.495785]}},{"type":"Feature","properties":{"name":"Wilhelmstr./Kochstr. (Berlin)","id":9012153,"weight":9510,"mean":59.09090909090909},"geometry":{"type":"Point","coordinates":[13.386361,52.50589]}},{"type":"Feature","properties":{"name":"Charlottenstr. (Berlin)","id":9012154,"weight":9230,"mean":42.857142857142854},"geometry":{"type":"Point","coordinates":[13.393536,52.506885]}},{"type":"Feature","properties":{"name":"Waldeckpark (Berlin)","id":9012155,"weight":9230,"mean":40.476190476190474},"geometry":{"type":"Point","coordinates":[13.401835,52.506175]}},{"type":"Feature","properties":{"name":"Alexandrinenstr. (Berlin)","id":9012156,"weight":9230,"mean":42.857142857142854},"geometry":{"type":"Point","coordinates":[13.405322,52.505154]}},{"type":"Feature","properties":{"name":"Jüdisches Museum (Berlin)","id":9012157,"weight":7680,"mean":128.92561983471074},"geometry":{"type":"Point","coordinates":[13.395639,52.503543]}},{"type":"Feature","properties":{"name":"Franz-Klühs-Str. (Berlin)","id":9012158,"weight":7680,"mean":128.92561983471074},"geometry":{"type":"Point","coordinates":[13.394804,52.500417]}},{"type":"Feature","properties":{"name":"Wilhelmstr./Franz-Klühs-Str. (Berlin)","id":9012161,"weight":280,"mean":90},"geometry":{"type":"Point","coordinates":[13.388606,52.501415]}},{"type":"Feature","properties":{"name":"U Moritzplatz (Berlin)","id":9013101,"weight":17410,"mean":31.45631067961165},"geometry":{"type":"Point","coordinates":[13.410947,52.503739]}},{"type":"Feature","properties":{"name":"U Kottbusser Tor (Berlin)","id":9013102,"weight":16990,"mean":14.347826086956522},"geometry":{"type":"Point","coordinates":[13.417748,52.499047]}},{"type":"Feature","properties":{"name":"U Prinzenstr. (Berlin)","id":9013103,"weight":10470,"mean":37.5},"geometry":{"type":"Point","coordinates":[13.406531,52.498274]}},{"type":"Feature","properties":{"name":"Prinzenstr./Ritterstr. (Berlin)","id":9013104,"weight":4310,"mean":53.114754098360656},"geometry":{"type":"Point","coordinates":[13.409275,52.501647]}},{"type":"Feature","properties":{"name":"Segitzdamm (Berlin)","id":9013151,"weight":4310,"mean":54.09836065573771},"geometry":{"type":"Point","coordinates":[13.41434,52.500239]}},{"type":"Feature","properties":{"name":"Oranienplatz (Berlin)","id":9013152,"weight":9650,"mean":46.11940298507463},"geometry":{"type":"Point","coordinates":[13.41573,52.502244]}},{"type":"Feature","properties":{"name":"U Kottbusser Tor (Berlin) [Bus Adalbertstr.]","id":9013172,"weight":4740,"mean":54},"geometry":{"type":"Point","coordinates":[13.418379,52.499894]}},{"type":"Feature","properties":{"name":"U Kottbusser Tor (Berlin) [Bus Reichenbg. Str.]","id":9013173,"weight":2180,"mean":96.36363636363636},"geometry":{"type":"Point","coordinates":[13.416759,52.499446]}},{"type":"Feature","properties":{"name":"U Kottbusser Tor (Berlin) [Bus Kottbusser Str.]","id":9013174,"weight":440,"mean":20},"geometry":{"type":"Point","coordinates":[13.419005,52.498304]}},{"type":"Feature","properties":{"name":"U Görlitzer Bahnhof (Berlin)","id":9014101,"weight":21530,"mean":33.75},"geometry":{"type":"Point","coordinates":[13.428468,52.499035]}},{"type":"Feature","properties":{"name":"U Schlesisches Tor (Berlin)","id":9014102,"weight":19800,"mean":56.40552995391705},"geometry":{"type":"Point","coordinates":[13.441791,52.501147]}},{"type":"Feature","properties":{"name":"Adalbertstr./Oranienstr. (Berlin)","id":9014103,"weight":13920,"mean":50.103092783505154},"geometry":{"type":"Point","coordinates":[13.419293,52.501285]}},{"type":"Feature","properties":{"name":"Manteuffelstr./Köpenicker Str. (Berlin)","id":9014104,"weight":11750,"mean":75.14285714285714},"geometry":{"type":"Point","coordinates":[13.432011,52.505634]}},{"type":"Feature","properties":{"name":"Waldemarstr./Manteuffelstr. (Berlin)","id":9014105,"weight":4290,"mean":69},"geometry":{"type":"Point","coordinates":[13.427919,52.501172]}},{"type":"Feature","properties":{"name":"Lausitzer Platz (Berlin)","id":9014106,"weight":340,"mean":45},"geometry":{"type":"Point","coordinates":[13.431914,52.49947]}},{"type":"Feature","properties":{"name":"Bethaniendamm (Berlin)","id":9014107,"weight":14070,"mean":73.6},"geometry":{"type":"Point","coordinates":[13.428439,52.507214]}},{"type":"Feature","properties":{"name":"Waldemarstr./Adalbertstr. (Berlin)","id":9014151,"weight":4290,"mean":69},"geometry":{"type":"Point","coordinates":[13.421819,52.50289]}},{"type":"Feature","properties":{"name":"Mariannenplatz (Berlin)","id":9014152,"weight":4290,"mean":68},"geometry":{"type":"Point","coordinates":[13.424418,52.502203]}},{"type":"Feature","properties":{"name":"Wrangelstr. (Berlin)","id":9014153,"weight":4290,"mean":80},"geometry":{"type":"Point","coordinates":[13.430012,52.503492]}},{"type":"Feature","properties":{"name":"Eisenbahnstr. (Berlin)","id":9014154,"weight":7460,"mean":73.2},"geometry":{"type":"Point","coordinates":[13.434934,52.504475]}},{"type":"Feature","properties":{"name":"Falckensteinstr. (Berlin)","id":9014155,"weight":7460,"mean":68.45637583892618},"geometry":{"type":"Point","coordinates":[13.443949,52.500052]}},{"type":"Feature","properties":{"name":"Heinrichplatz (Berlin)","id":9014156,"weight":9190,"mean":44.64},"geometry":{"type":"Point","coordinates":[13.422912,52.500271]}},{"type":"Feature","properties":{"name":"Heckmannufer (Berlin)","id":9015101,"weight":7460,"mean":65.63758389261746},"geometry":{"type":"Point","coordinates":[13.449298,52.497011]}},{"type":"Feature","properties":{"name":"Glogauer Str. (Berlin)","id":9015103,"weight":9190,"mean":16.32},"geometry":{"type":"Point","coordinates":[13.437272,52.493536]}},{"type":"Feature","properties":{"name":"Ohlauer Str. (Berlin)","id":9015104,"weight":9190,"mean":12.48},"geometry":{"type":"Point","coordinates":[13.430476,52.495569]}},{"type":"Feature","properties":{"name":"Taborstr. (Berlin)","id":9015151,"weight":7460,"mean":65.63758389261746},"geometry":{"type":"Point","coordinates":[13.447261,52.498214]}},{"type":"Feature","properties":{"name":"Spreewaldplatz (Berlin)","id":9015152,"weight":9190,"mean":35.52},"geometry":{"type":"Point","coordinates":[13.43128,52.497644]}},{"type":"Feature","properties":{"name":"U Gneisenaustr. (Berlin)","id":9016101,"weight":23440,"mean":76.36363636363636},"geometry":{"type":"Point","coordinates":[13.395382,52.491252]}},{"type":"Feature","properties":{"name":"Zossener Brücke (Berlin)","id":9016103,"weight":14620,"mean":122.78350515463917},"geometry":{"type":"Point","coordinates":[13.395845,52.498427]}},{"type":"Feature","properties":{"name":"Marheinekeplatz (Berlin)","id":9016151,"weight":7160,"mean":145.47169811320754},"geometry":{"type":"Point","coordinates":[13.393821,52.489383]}},{"type":"Feature","properties":{"name":"Jüterboger Str. (Berlin)","id":9016152,"weight":7160,"mean":148.8679245283019},"geometry":{"type":"Point","coordinates":[13.394414,52.486248]}},{"type":"Feature","properties":{"name":"Gneisenaustr./Baerwaldstr. (Berlin)","id":9016153,"weight":4550,"mean":53.73134328358209},"geometry":{"type":"Point","coordinates":[13.400214,52.490386]}},{"type":"Feature","properties":{"name":"Urbanstr./Baerwaldstr. (Berlin)","id":9016154,"weight":18470,"mean":61.630434782608695},"geometry":{"type":"Point","coordinates":[13.403182,52.49391]}},{"type":"Feature","properties":{"name":"Tempelherrenstr. (Berlin)","id":9016157,"weight":14160,"mean":72.1951219512195},"geometry":{"type":"Point","coordinates":[13.400634,52.494335]}},{"type":"Feature","properties":{"name":"U Schönleinstr. (Berlin)","id":9016201,"weight":8180,"mean":1.5},"geometry":{"type":"Point","coordinates":[13.422241,52.493179]}},{"type":"Feature","properties":{"name":"U Südstern (Berlin)","id":9016202,"weight":11970,"mean":24.672897196261683},"geometry":{"type":"Point","coordinates":[13.407685,52.489219]}},{"type":"Feature","properties":{"name":"Geibelstr. (Berlin)","id":9016203,"weight":14160,"mean":74.63414634146342},"geometry":{"type":"Point","coordinates":[13.406787,52.493364]}},{"type":"Feature","properties":{"name":"Körtestr. (Berlin)","id":9016204,"weight":14160,"mean":60},"geometry":{"type":"Point","coordinates":[13.41234,52.492039]}},{"type":"Feature","properties":{"name":"Hasenheide (Berlin)","id":9016250,"weight":240,"mean":60},"geometry":{"type":"Point","coordinates":[13.418968,52.487556]}},{"type":"Feature","properties":{"name":"Fichtestr. (Berlin)","id":9016251,"weight":240,"mean":60},"geometry":{"type":"Point","coordinates":[13.412987,52.488338]}},{"type":"Feature","properties":{"name":"Graefestr. (Berlin)","id":9016252,"weight":14160,"mean":59.02439024390244},"geometry":{"type":"Point","coordinates":[13.416148,52.490969]}},{"type":"Feature","properties":{"name":"Wilmsstr. (Berlin)","id":9016254,"weight":4310,"mean":55.08196721311475},"geometry":{"type":"Point","coordinates":[13.404342,52.49519]}},{"type":"Feature","properties":{"name":"Kottbusser Brücke (Berlin)","id":9016255,"weight":440,"mean":20},"geometry":{"type":"Point","coordinates":[13.420698,52.495534]}},{"type":"Feature","properties":{"name":"Obentrautstr./U Mehringdamm (Berlin)","id":9017100,"weight":260,"mean":130},"geometry":{"type":"Point","coordinates":[13.389342,52.495817]}},{"type":"Feature","properties":{"name":"U Mehringdamm (Berlin)","id":9017101,"weight":33730,"mean":61.48514851485149},"geometry":{"type":"Point","coordinates":[13.388153,52.493575]}},{"type":"Feature","properties":{"name":"U Platz der Luftbrücke (Berlin)","id":9017102,"weight":26295,"mean":58.62700228832952},"geometry":{"type":"Point","coordinates":[13.386351,52.484977]}},{"type":"Feature","properties":{"name":"U Gleisdreieck (Berlin)","id":9017103,"weight":26590,"mean":12.903225806451612},"geometry":{"type":"Point","coordinates":[13.374293,52.499587]}},{"type":"Feature","properties":{"name":"U Möckernbrücke (Berlin)","id":9017104,"weight":23610,"mean":23.214285714285715},"geometry":{"type":"Point","coordinates":[13.383256,52.498944]}},{"type":"Feature","properties":{"name":"Yorckstr./Großbeerenstr. (Berlin)","id":9017105,"weight":12890,"mean":134.55882352941177},"geometry":{"type":"Point","coordinates":[13.383826,52.493634]}},{"type":"Feature","properties":{"name":"Platz der Luftbrücke (Berlin)","id":9017106,"weight":410,"mean":0},"geometry":{"type":"Point","coordinates":[13.387038,52.483441]}},{"type":"Feature","properties":{"name":"Kaiserkorso (Berlin)","id":9017107,"weight":3580,"mean":102.10526315789474},"geometry":{"type":"Point","coordinates":[13.384291,52.484093]}},{"type":"Feature","properties":{"name":"Katzbachstr./Kreuzbergstr. (Berlin)","id":9017109,"weight":3370,"mean":19.565217391304348},"geometry":{"type":"Point","coordinates":[13.377064,52.48931]}},{"type":"Feature","properties":{"name":"Bergmannstr. (Berlin)","id":9017151,"weight":900,"mean":43.63636363636363},"geometry":{"type":"Point","coordinates":[13.386511,52.490071]}},{"type":"Feature","properties":{"name":"Kreuzberg/Wasserfall (Berlin)","id":9017152,"weight":3370,"mean":19.565217391304348},"geometry":{"type":"Point","coordinates":[13.382333,52.490174]}},{"type":"Feature","properties":{"name":"U Mehringdamm. (Berlin)","id":9017171,"weight":4780,"mean":122.79069767441861},"geometry":{"type":"Point","coordinates":[13.388392,52.492772]}},{"type":"Feature","properties":{"name":"Columbiadamm/Platz der Luftbrücke (Berlin)","id":9017181,"weight":8540,"mean":101.53846153846153},"geometry":{"type":"Point","coordinates":[13.390012,52.484359]}},{"type":"Feature","properties":{"name":"U Jakob-Kaiser-Platz (Berlin)","id":9018101,"weight":46840,"mean":42.69938650306749},"geometry":{"type":"Point","coordinates":[13.293661,52.536985]}},{"type":"Feature","properties":{"name":"U Halemweg (Berlin)","id":9018102,"weight":15970,"mean":33.84615384615385},"geometry":{"type":"Point","coordinates":[13.286578,52.536703]}},{"type":"Feature","properties":{"name":"Weltlingerbrücke (Berlin)","id":9018103,"weight":19700,"mean":49.739776951672866},"geometry":{"type":"Point","coordinates":[13.295064,52.539576]}},{"type":"Feature","properties":{"name":"Hinckeldeybrücke (Berlin)","id":9018105,"weight":6520,"mean":70},"geometry":{"type":"Point","coordinates":[13.299222,52.546621]}},{"type":"Feature","properties":{"name":"Goerdelerdamm (Berlin)","id":9018106,"weight":4230,"mean":57.96610169491525},"geometry":{"type":"Point","coordinates":[13.29817,52.534949]}},{"type":"Feature","properties":{"name":"Habermannzeile (Berlin)","id":9018151,"weight":4520,"mean":53.8235294117647},"geometry":{"type":"Point","coordinates":[13.291279,52.539671]}},{"type":"Feature","properties":{"name":"Hofackerzeile (Berlin)","id":9018152,"weight":4250,"mean":51},"geometry":{"type":"Point","coordinates":[13.290865,52.537105]}},{"type":"Feature","properties":{"name":"Dahrendorfzeile (Berlin)","id":9018153,"weight":4250,"mean":49},"geometry":{"type":"Point","coordinates":[13.289038,52.535148]}},{"type":"Feature","properties":{"name":"Gloedenpfad (Berlin)","id":9019102,"weight":4230,"mean":54.91525423728814},"geometry":{"type":"Point","coordinates":[13.302134,52.539408]}},{"type":"Feature","properties":{"name":"Seestr./Beusselstr. (Berlin)","id":9019103,"weight":9670,"mean":75.73770491803279},"geometry":{"type":"Point","coordinates":[13.326346,52.53825]}},{"type":"Feature","properties":{"name":"Buchholzweg (Berlin)","id":9019105,"weight":15380,"mean":71.25},"geometry":{"type":"Point","coordinates":[13.317793,52.546973]}},{"type":"Feature","properties":{"name":"Gedenkstätte Plötzensee (Berlin)","id":9019152,"weight":4230,"mean":79.32203389830508},"geometry":{"type":"Point","coordinates":[13.324383,52.5421]}},{"type":"Feature","properties":{"name":"Friedrich-Olbricht-Damm/Saatwinkler Damm (Berlin)","id":9019153,"weight":4230,"mean":82.37288135593221},"geometry":{"type":"Point","coordinates":[13.312577,52.547552]}},{"type":"Feature","properties":{"name":"Stieffring (Berlin)","id":9019154,"weight":4230,"mean":69.15254237288136},"geometry":{"type":"Point","coordinates":[13.312724,52.545079]}},{"type":"Feature","properties":{"name":"Thaters Privatweg (Berlin)","id":9019155,"weight":4230,"mean":52.88135593220339},"geometry":{"type":"Point","coordinates":[13.310109,52.539446]}},{"type":"Feature","properties":{"name":"Kolonie Zukunft (Berlin)","id":9019156,"weight":4230,"mean":50.847457627118644},"geometry":{"type":"Point","coordinates":[13.305231,52.539464]}},{"type":"Feature","properties":{"name":"Berliner Großmarkt (Berlin)","id":9019158,"weight":9670,"mean":65.90163934426229},"geometry":{"type":"Point","coordinates":[13.327005,52.536651]}},{"type":"Feature","properties":{"name":"Reichweindamm (Berlin)","id":9019202,"weight":4230,"mean":60},"geometry":{"type":"Point","coordinates":[13.300402,52.535653]}},{"type":"Feature","properties":{"name":"Friedrich-Olbricht-Damm/Heckerdamm (Berlin)","id":9019203,"weight":4230,"mean":66.10169491525424},"geometry":{"type":"Point","coordinates":[13.314967,52.541216]}},{"type":"Feature","properties":{"name":"U Mierendorffplatz (Berlin)","id":9019204,"weight":23970,"mean":26.53386454183267},"geometry":{"type":"Point","coordinates":[13.305715,52.525978]}},{"type":"Feature","properties":{"name":"Quedlinburger Str. (Berlin)","id":9019205,"weight":12730,"mean":29.4},"geometry":{"type":"Point","coordinates":[13.305919,52.52292]}},{"type":"Feature","properties":{"name":"Wirmerzeile (Berlin)","id":9019252,"weight":4230,"mean":58.983050847457626},"geometry":{"type":"Point","coordinates":[13.302708,52.536903]}},{"type":"Feature","properties":{"name":"Keplerstr. (Berlin)","id":9019253,"weight":6410,"mean":40.25316455696203},"geometry":{"type":"Point","coordinates":[13.304866,52.528144]}},{"type":"Feature","properties":{"name":"Friedhöfe Fürstenbrunner Weg (Berlin)","id":9020101,"weight":3000,"mean":61.25},"geometry":{"type":"Point","coordinates":[13.279296,52.524469]}},{"type":"Feature","properties":{"name":"Rohrdammbrücke (Berlin)","id":9020102,"weight":3000,"mean":65},"geometry":{"type":"Point","coordinates":[13.26979,52.528499]}},{"type":"Feature","properties":{"name":"Kirschenallee (Berlin)","id":9020103,"weight":14050,"mean":92.45454545454545},"geometry":{"type":"Point","coordinates":[13.267228,52.520384]}},{"type":"Feature","properties":{"name":"Machandelweg (Berlin)","id":9020105,"weight":16720,"mean":89.73913043478261},"geometry":{"type":"Point","coordinates":[13.245063,52.524825]}},{"type":"Feature","properties":{"name":"Fürstenbrunner Weg (Berlin)","id":9020151,"weight":3000,"mean":60},"geometry":{"type":"Point","coordinates":[13.27993,52.520957]}},{"type":"Feature","properties":{"name":"Kastanienallee (Berlin)","id":9020152,"weight":14050,"mean":91.78082191780823},"geometry":{"type":"Point","coordinates":[13.272227,52.519513]}},{"type":"Feature","properties":{"name":"DRK-Kliniken Westend (Berlin)","id":9020153,"weight":14310,"mean":89.32735426008969},"geometry":{"type":"Point","coordinates":[13.276432,52.518712]}},{"type":"Feature","properties":{"name":"S+U Jungfernheide Bhf (Berlin)","id":9020201,"weight":52640,"mean":24.464285714285715},"geometry":{"type":"Point","coordinates":[13.299064,52.530275]}},{"type":"Feature","properties":{"name":"S Beusselstr. (Berlin)","id":9020202,"weight":32300,"mean":44.554455445544555},"geometry":{"type":"Point","coordinates":[13.328703,52.534314]}},{"type":"Feature","properties":{"name":"Sophie-Charlotten-Str. (Berlin)","id":9020204,"weight":18040,"mean":94.08560311284047},"geometry":{"type":"Point","coordinates":[13.286792,52.518816]}},{"type":"Feature","properties":{"name":"Pulsstr. (Berlin)","id":9020206,"weight":1760,"mean":18.75},"geometry":{"type":"Point","coordinates":[13.285612,52.52432]}},{"type":"Feature","properties":{"name":"Tegeler Weg/S Jungfernheide (Berlin)","id":9020207,"weight":21095,"mean":43.82608695652174},"geometry":{"type":"Point","coordinates":[13.296238,52.529407]}},{"type":"Feature","properties":{"name":"Osnabrücker Str. (Berlin)","id":9020208,"weight":8650,"mean":31.794871794871796},"geometry":{"type":"Point","coordinates":[13.297388,52.526914]}},{"type":"Feature","properties":{"name":"Schlossbrücke (Berlin)","id":9020252,"weight":8650,"mean":37.94871794871795},"geometry":{"type":"Point","coordinates":[13.299908,52.522941]}},{"type":"Feature","properties":{"name":"Mollwitzstr. (Berlin)","id":9020271,"weight":4330,"mean":164.44444444444446},"geometry":{"type":"Point","coordinates":[13.285903,52.522169]}},{"type":"Feature","properties":{"name":"Schlosspark-Klinik (Berlin)","id":9020272,"weight":1740,"mean":18.75},"geometry":{"type":"Point","coordinates":[13.288737,52.522839]}},{"type":"Feature","properties":{"name":"Goerdelersteg (Berlin)","id":9020281,"weight":3260,"mean":0},"geometry":{"type":"Point","coordinates":[13.305899,52.532177]}},{"type":"Feature","properties":{"name":"Marchbrücke (Berlin)","id":9021102,"weight":6660,"mean":130.71428571428572},"geometry":{"type":"Point","coordinates":[13.32375,52.51715]}},{"type":"Feature","properties":{"name":"Marchstr. (Berlin)","id":9021151,"weight":21210,"mean":96.08391608391608},"geometry":{"type":"Point","coordinates":[13.322639,52.513495]}},{"type":"Feature","properties":{"name":"Franklinstr. (Berlin)","id":9021152,"weight":13015,"mean":58.19548872180451},"geometry":{"type":"Point","coordinates":[13.328141,52.522043]}},{"type":"Feature","properties":{"name":"Helmholtzstr. (Berlin)","id":9021181,"weight":13060,"mean":55.037593984962406},"geometry":{"type":"Point","coordinates":[13.321238,52.520827]}},{"type":"Feature","properties":{"name":"U Sophie-Charlotte-Platz (Berlin)","id":9022101,"weight":18640,"mean":41.702127659574465},"geometry":{"type":"Point","coordinates":[13.297463,52.51097]}},{"type":"Feature","properties":{"name":"Klausenerplatz (Berlin)","id":9022103,"weight":18030,"mean":92.578125},"geometry":{"type":"Point","coordinates":[13.291368,52.519125]}},{"type":"Feature","properties":{"name":"Haubachstr. (Berlin)","id":9022105,"weight":8650,"mean":42.56410256410256},"geometry":{"type":"Point","coordinates":[13.300864,52.515391]}},{"type":"Feature","properties":{"name":"Bismarckstr./Kaiser-Friedrich-Str. (Berlin)","id":9022106,"weight":8790,"mean":42.14876033057851},"geometry":{"type":"Point","coordinates":[13.301597,52.511284]}},{"type":"Feature","properties":{"name":"Eosanderstr. (Berlin)","id":9022151,"weight":14550,"mean":87.77292576419214},"geometry":{"type":"Point","coordinates":[13.304013,52.518268]}},{"type":"Feature","properties":{"name":"Seelingstr. (Berlin)","id":9022152,"weight":3480,"mean":155.55555555555554},"geometry":{"type":"Point","coordinates":[13.296444,52.516374]}},{"type":"Feature","properties":{"name":"Zillestr. (Berlin)","id":9022153,"weight":3480,"mean":148.88888888888889},"geometry":{"type":"Point","coordinates":[13.2969,52.513367]}},{"type":"Feature","properties":{"name":"Schloss Charlottenburg (Berlin)","id":9022171,"weight":10490,"mean":119.20529801324503},"geometry":{"type":"Point","coordinates":[13.295954,52.519255]}},{"type":"Feature","properties":{"name":"Luisenplatz/Schloss Charlottenburg (Berlin)","id":9022172,"weight":23200,"mean":73.35260115606937},"geometry":{"type":"Point","coordinates":[13.299632,52.519574]}},{"type":"Feature","properties":{"name":"U Deutsche Oper (Berlin)","id":9022201,"weight":15215,"mean":14.871794871794872},"geometry":{"type":"Point","coordinates":[13.30942,52.511827]}},{"type":"Feature","properties":{"name":"U Richard-Wagner-Platz (Berlin)","id":9022202,"weight":26505,"mean":67.2072072072072},"geometry":{"type":"Point","coordinates":[13.307221,52.517154]}},{"type":"Feature","properties":{"name":"Dovebrücke (Berlin)","id":9022203,"weight":6660,"mean":123.21428571428571},"geometry":{"type":"Point","coordinates":[13.320268,52.518438]}},{"type":"Feature","properties":{"name":"Guerickestr. (Berlin)","id":9022251,"weight":6400,"mean":-3.116883116883117},"geometry":{"type":"Point","coordinates":[13.317441,52.517508]}},{"type":"Feature","properties":{"name":"Warburgzeile (Berlin)","id":9022252,"weight":14550,"mean":85.30434782608695},"geometry":{"type":"Point","coordinates":[13.310405,52.516211]}},{"type":"Feature","properties":{"name":"U Ernst-Reuter-Platz (Berlin)","id":9023101,"weight":48960,"mean":67.32},"geometry":{"type":"Point","coordinates":[13.322581,52.511582]}},{"type":"Feature","properties":{"name":"Otto-Suhr-Allee/Leibnizstr. (Berlin)","id":9023104,"weight":20950,"mean":62.35294117647059},"geometry":{"type":"Point","coordinates":[13.315249,52.514638]}},{"type":"Feature","properties":{"name":"Uhlandstr./Kantstr. (Berlin)","id":9023105,"weight":12970,"mean":38.45070422535211},"geometry":{"type":"Point","coordinates":[13.325731,52.505624]}},{"type":"Feature","properties":{"name":"Steinplatz (Berlin)","id":9023152,"weight":21470,"mean":109.03448275862068},"geometry":{"type":"Point","coordinates":[13.326202,52.509043]}},{"type":"Feature","properties":{"name":"Jebensstr. (Berlin)","id":9023172,"weight":21210,"mean":91.67832167832168},"geometry":{"type":"Point","coordinates":[13.33043,52.507126]}},{"type":"Feature","properties":{"name":"S+U Zoologischer Garten Bhf (Berlin)","id":9023201,"weight":180360,"mean":67.51552795031056},"geometry":{"type":"Point","coordinates":[13.332707,52.506921]}},{"type":"Feature","properties":{"name":"U Augsburger Str. (Berlin)","id":9023202,"weight":5370,"mean":3.272727272727273},"geometry":{"type":"Point","coordinates":[13.336771,52.500557]}},{"type":"Feature","properties":{"name":"U Kurfürstendamm (Berlin)","id":9023203,"weight":86910,"mean":104.05929304446978},"geometry":{"type":"Point","coordinates":[13.331419,52.503763]}},{"type":"Feature","properties":{"name":"Europa-Center (Berlin)","id":9023204,"weight":29210,"mean":207.77142857142857},"geometry":{"type":"Point","coordinates":[13.337256,52.50393]}},{"type":"Feature","properties":{"name":"Joachimsthaler Str./Kantstr. (Berlin)","id":9023206,"weight":19410,"mean":99.30232558139535},"geometry":{"type":"Point","coordinates":[13.330804,52.505351]}},{"type":"Feature","properties":{"name":"Breitscheidplatz (Berlin)","id":9023252,"weight":15720,"mean":172.36994219653178},"geometry":{"type":"Point","coordinates":[13.337201,52.505045]}},{"type":"Feature","properties":{"name":"U Uhlandstr. (Berlin)","id":9023301,"weight":44665,"mean":74.01069518716578},"geometry":{"type":"Point","coordinates":[13.326233,52.502742]}},{"type":"Feature","properties":{"name":"U Adenauerplatz (Berlin)","id":9023302,"weight":51475,"mean":60},"geometry":{"type":"Point","coordinates":[13.307348,52.500086]}},{"type":"Feature","properties":{"name":"Olivaer Platz (Berlin)","id":9023304,"weight":45450,"mean":61.73076923076923},"geometry":{"type":"Point","coordinates":[13.312999,52.50094]}},{"type":"Feature","properties":{"name":"Lietzenburger Str./Uhlandstr. (Berlin)","id":9023305,"weight":6860,"mean":16},"geometry":{"type":"Point","coordinates":[13.32546,52.500028]}},{"type":"Feature","properties":{"name":"Olivaer Platz Süd (Berlin)","id":9023306,"weight":2900,"mean":10.909090909090908},"geometry":{"type":"Point","coordinates":[13.312913,52.499557]}},{"type":"Feature","properties":{"name":"Bleibtreustr. (Berlin)","id":9023351,"weight":31830,"mean":81.98473282442748},"geometry":{"type":"Point","coordinates":[13.320165,52.501732]}},{"type":"Feature","properties":{"name":"Pariser Str. (Berlin)","id":9023352,"weight":6860,"mean":26},"geometry":{"type":"Point","coordinates":[13.324424,52.49791]}},{"type":"Feature","properties":{"name":"Friedrich-Hollaender-Platz (Berlin)","id":9023354,"weight":9680,"mean":35.483870967741936},"geometry":{"type":"Point","coordinates":[13.330729,52.500445]}},{"type":"Feature","properties":{"name":"S Charlottenburg Bhf (Berlin)","id":9024101,"weight":31675,"mean":55.44041450777202},"geometry":{"type":"Point","coordinates":[13.305212,52.505052]}},{"type":"Feature","properties":{"name":"S Westkreuz (Berlin)","id":9024102,"weight":31955,"mean":31.937377690802347},"geometry":{"type":"Point","coordinates":[13.283036,52.501152]}},{"type":"Feature","properties":{"name":"Amtsgerichtsplatz (Berlin)","id":9024104,"weight":22910,"mean":108.93617021276596},"geometry":{"type":"Point","coordinates":[13.295427,52.506858]}},{"type":"Feature","properties":{"name":"S Messe Nord/ICC (Berlin)","id":9024106,"weight":35825,"mean":72.67924528301887},"geometry":{"type":"Point","coordinates":[13.283043,52.506454]}},{"type":"Feature","properties":{"name":"Kaiser-Friedrich-Str./Kantstr. (Berlin)","id":9024108,"weight":30050,"mean":95.75447570332481},"geometry":{"type":"Point","coordinates":[13.302495,52.506781]}},{"type":"Feature","properties":{"name":"Kuno-Fischer-Str. (Berlin)","id":9024151,"weight":12990,"mean":44.36619718309859},"geometry":{"type":"Point","coordinates":[13.289779,52.506615]}},{"type":"Feature","properties":{"name":"Hindemithplatz (Berlin)","id":9024152,"weight":270,"mean":0},"geometry":{"type":"Point","coordinates":[13.307706,52.503218]}},{"type":"Feature","properties":{"name":"U Wilmersdorfer Str./Kantstr. (Berlin)","id":9024200,"weight":21150,"mean":117.75280898876404},"geometry":{"type":"Point","coordinates":[13.307056,52.506641]}},{"type":"Feature","properties":{"name":"U Bismarckstr. (Berlin)","id":9024201,"weight":27100,"mean":22.90909090909091},"geometry":{"type":"Point","coordinates":[13.305286,52.511513]}},{"type":"Feature","properties":{"name":"U Wilmersdorfer Str. (Berlin)","id":9024202,"weight":13700,"mean":24.736842105263158},"geometry":{"type":"Point","coordinates":[13.306885,52.505834]}},{"type":"Feature","properties":{"name":"S Savignyplatz (Berlin)","id":9024203,"weight":15340,"mean":48.849557522123895},"geometry":{"type":"Point","coordinates":[13.319003,52.505223]}},{"type":"Feature","properties":{"name":"Savignyplatz (Berlin)","id":9024204,"weight":19420,"mean":106.4591439688716},"geometry":{"type":"Point","coordinates":[13.322379,52.505814]}},{"type":"Feature","properties":{"name":"Kantstr./Leibnizstr. (Berlin)","id":9024207,"weight":25830,"mean":86.84684684684684},"geometry":{"type":"Point","coordinates":[13.313968,52.506294]}},{"type":"Feature","properties":{"name":"Bismarckstr./Leibnizstr. (Berlin)","id":9024208,"weight":6400,"mean":-7.792207792207792},"geometry":{"type":"Point","coordinates":[13.314776,52.512127]}},{"type":"Feature","properties":{"name":"Goethestr. (Berlin)","id":9024251,"weight":6400,"mean":3.896103896103896},"geometry":{"type":"Point","coordinates":[13.314309,52.508825]}},{"type":"Feature","properties":{"name":"Schlüterstr. (Berlin)","id":9024252,"weight":19430,"mean":107.8125},"geometry":{"type":"Point","coordinates":[13.317644,52.506074]}},{"type":"Feature","properties":{"name":"Mommsenstr. (Berlin)","id":9024253,"weight":6400,"mean":7.792207792207792},"geometry":{"type":"Point","coordinates":[13.313585,52.503333]}},{"type":"Feature","properties":{"name":"Scholzplatz (Berlin)","id":9025101,"weight":14040,"mean":43.311258278145694},"geometry":{"type":"Point","coordinates":[13.228287,52.506595]}},{"type":"Feature","properties":{"name":"Ragniter Allee (Berlin)","id":9025151,"weight":14040,"mean":49.271523178807946},"geometry":{"type":"Point","coordinates":[13.235297,52.507088]}},{"type":"Feature","properties":{"name":"Mohrunger Allee (Berlin)","id":9025152,"weight":14040,"mean":45.6953642384106},"geometry":{"type":"Point","coordinates":[13.249343,52.507938]}},{"type":"Feature","properties":{"name":"Am Postfenn (Berlin)","id":9025154,"weight":1010,"mean":13.333333333333334},"geometry":{"type":"Point","coordinates":[13.209539,52.500731]}},{"type":"Feature","properties":{"name":"Schildhorn (Berlin)","id":9025155,"weight":1010,"mean":20},"geometry":{"type":"Point","coordinates":[13.199504,52.494569]}},{"type":"Feature","properties":{"name":"U Ruhleben (Berlin)","id":9025202,"weight":27700,"mean":59.82507288629738},"geometry":{"type":"Point","coordinates":[13.241902,52.525587]}},{"type":"Feature","properties":{"name":"U Olympia-Stadion (Berlin)","id":9025203,"weight":12030,"mean":0},"geometry":{"type":"Point","coordinates":[13.2505,52.517048]}},{"type":"Feature","properties":{"name":"Spandauer Damm/Reichsstr. (Berlin)","id":9025252,"weight":14050,"mean":93.42465753424658},"geometry":{"type":"Point","coordinates":[13.2501,52.523703]}},{"type":"Feature","properties":{"name":"Park Ruhwald (Berlin)","id":9025253,"weight":14050,"mean":94.24657534246575},"geometry":{"type":"Point","coordinates":[13.255018,52.522554]}},{"type":"Feature","properties":{"name":"Meiningenallee (Berlin)","id":9025254,"weight":14050,"mean":94.0909090909091},"geometry":{"type":"Point","coordinates":[13.259298,52.521781]}},{"type":"Feature","properties":{"name":"Wiesendammbrücke (Berlin)","id":9025255,"weight":1380,"mean":4.615384615384615},"geometry":{"type":"Point","coordinates":[13.243588,52.527906]}},{"type":"Feature","properties":{"name":"Flatowallee/Olympiastadion (Berlin)","id":9025301,"weight":14040,"mean":48.079470198675494},"geometry":{"type":"Point","coordinates":[13.241523,52.507473]}},{"type":"Feature","properties":{"name":"S Olympiastadion (Berlin)","id":9025321,"weight":6800,"mean":19.285714285714285},"geometry":{"type":"Point","coordinates":[13.241111,52.511135]}},{"type":"Feature","properties":{"name":"Maikäferpfad (Berlin)","id":9025401,"weight":640,"mean":-30},"geometry":{"type":"Point","coordinates":[13.266432,52.49477]}},{"type":"Feature","properties":{"name":"S Messe Süd (Berlin)","id":9025423,"weight":7510,"mean":23.225806451612904},"geometry":{"type":"Point","coordinates":[13.27045,52.498771]}},{"type":"Feature","properties":{"name":"S Pichelsberg (Berlin)","id":9025424,"weight":6680,"mean":18.91891891891892},"geometry":{"type":"Point","coordinates":[13.227196,52.510264]}},{"type":"Feature","properties":{"name":"Jafféstr. (Berlin)","id":9025425,"weight":640,"mean":30},"geometry":{"type":"Point","coordinates":[13.272175,52.499346]}},{"type":"Feature","properties":{"name":"Alte Allee (Berlin)","id":9025451,"weight":640,"mean":-30},"geometry":{"type":"Point","coordinates":[13.263043,52.492119]}},{"type":"Feature","properties":{"name":"Kiefernweg (Berlin)","id":9025452,"weight":640,"mean":-30},"geometry":{"type":"Point","coordinates":[13.264926,52.4936]}},{"type":"Feature","properties":{"name":"Messegelände/Verwaltung (Berlin)","id":9025551,"weight":640,"mean":30},"geometry":{"type":"Point","coordinates":[13.274917,52.501509]}},{"type":"Feature","properties":{"name":"Messegelände/ICC (Berlin)","id":9025552,"weight":8060,"mean":32.76315789473684},"geometry":{"type":"Point","coordinates":[13.279605,52.504694]}},{"type":"Feature","properties":{"name":"U Neu-Westend (Berlin)","id":9026101,"weight":18600,"mean":21.06122448979592},"geometry":{"type":"Point","coordinates":[13.25991,52.516409]}},{"type":"Feature","properties":{"name":"Brixplatz (Berlin)","id":9026102,"weight":3620,"mean":0.9523809523809523},"geometry":{"type":"Point","coordinates":[13.256218,52.519693]}},{"type":"Feature","properties":{"name":"S Heerstr. (Berlin)","id":9026105,"weight":28650,"mean":82.98507462686567},"geometry":{"type":"Point","coordinates":[13.258514,52.508273]}},{"type":"Feature","properties":{"name":"Hessenallee (Berlin)","id":9026151,"weight":6980,"mean":31.555555555555557},"geometry":{"type":"Point","coordinates":[13.263974,52.514299]}},{"type":"Feature","properties":{"name":"Reichsstr./Kastanienallee (Berlin)","id":9026152,"weight":6980,"mean":35.55555555555556},"geometry":{"type":"Point","coordinates":[13.268902,52.511478]}},{"type":"Feature","properties":{"name":"Württembergallee (Berlin)","id":9026153,"weight":14040,"mean":54.8},"geometry":{"type":"Point","coordinates":[13.265618,52.508943]}},{"type":"Feature","properties":{"name":"Westendallee (Berlin)","id":9026154,"weight":260,"mean":0},"geometry":{"type":"Point","coordinates":[13.253244,52.521324]}},{"type":"Feature","properties":{"name":"Altenburger Allee (Berlin)","id":9026171,"weight":3480,"mean":54.4},"geometry":{"type":"Point","coordinates":[13.25791,52.518587]}},{"type":"Feature","properties":{"name":"U Theodor-Heuss-Platz (Berlin)","id":9026201,"weight":27955,"mean":79.1167192429022},"geometry":{"type":"Point","coordinates":[13.272977,52.509798]}},{"type":"Feature","properties":{"name":"U Kaiserdamm (Berlin)","id":9026202,"weight":18160,"mean":18.633540372670808},"geometry":{"type":"Point","coordinates":[13.281695,52.509985]}},{"type":"Feature","properties":{"name":"U Theodor-Heuss-Platz Süd (Berlin)","id":9026203,"weight":15090,"mean":49.06666666666667},"geometry":{"type":"Point","coordinates":[13.272215,52.508908]}},{"type":"Feature","properties":{"name":"Messedamm/ZOB (Berlin)","id":9026204,"weight":3505,"mean":24.23076923076923},"geometry":{"type":"Point","coordinates":[13.280703,52.507001]}},{"type":"Feature","properties":{"name":"Knobelsdorffstr. (Berlin)","id":9026205,"weight":3000,"mean":40},"geometry":{"type":"Point","coordinates":[13.281432,52.512826]}},{"type":"Feature","properties":{"name":"Königin-Elisabeth-Str/Spandauer Damm (Berlin)","id":9026206,"weight":17570,"mean":80.50359712230215},"geometry":{"type":"Point","coordinates":[13.280296,52.518347]}},{"type":"Feature","properties":{"name":"S Westend (Berlin)","id":9026207,"weight":27390,"mean":60.546697038724375},"geometry":{"type":"Point","coordinates":[13.284237,52.51861]}},{"type":"Feature","properties":{"name":"Masurenallee/ZOB (Berlin)","id":9026208,"weight":22060,"mean":41.72185430463576},"geometry":{"type":"Point","coordinates":[13.27878,52.506734]}},{"type":"Feature","properties":{"name":"Neue Kantstr./ZOB (Berlin)","id":9026209,"weight":80},"geometry":{"type":"Point","coordinates":[13.281127,52.506385]}},{"type":"Feature","properties":{"name":"Haus des Rundfunks (Berlin)","id":9026251,"weight":11080,"mean":37.4025974025974},"geometry":{"type":"Point","coordinates":[13.276591,52.507423]}},{"type":"Feature","properties":{"name":"U Theodor-Heuss-Platz West (Berlin)","id":9026271,"weight":3855,"mean":21.08108108108108},"geometry":{"type":"Point","coordinates":[13.271071,52.510088]}},{"type":"Feature","properties":{"name":"Oberjägerweg (Berlin)","id":9027101,"weight":720,"mean":88.69565217391305},"geometry":{"type":"Point","coordinates":[13.176935,52.585026]}},{"type":"Feature","properties":{"name":"Johannesstift (Berlin)","id":9027201,"weight":7560,"mean":24.313725490196077},"geometry":{"type":"Point","coordinates":[13.192624,52.566715]}},{"type":"Feature","properties":{"name":"Klinkeplatz (Berlin)","id":9027202,"weight":15325,"mean":90.73170731707317},"geometry":{"type":"Point","coordinates":[13.198584,52.555439]}},{"type":"Feature","properties":{"name":"Havelschanze (Berlin)","id":9027204,"weight":19990,"mean":51.666666666666664},"geometry":{"type":"Point","coordinates":[13.20732,52.554074]}},{"type":"Feature","properties":{"name":"Aalemannufer (Berlin)","id":9027205,"weight":6275,"mean":16.27906976744186},"geometry":{"type":"Point","coordinates":[13.212685,52.573261]}},{"type":"Feature","properties":{"name":"Rauchstr. (Berlin)","id":9027206,"weight":20120,"mean":59.02597402597402},"geometry":{"type":"Point","coordinates":[13.208439,52.561522]}},{"type":"Feature","properties":{"name":"Cautiusstr. (Berlin)","id":9027207,"weight":14400,"mean":32.926829268292686},"geometry":{"type":"Point","coordinates":[13.196875,52.562511]}},{"type":"Feature","properties":{"name":"Mögeldorfer Weg (Berlin)","id":9027251,"weight":14400,"mean":86.58536585365853},"geometry":{"type":"Point","coordinates":[13.197451,52.559836]}},{"type":"Feature","properties":{"name":"Schülerbergstr. (Berlin)","id":9027252,"weight":14400,"mean":89.7560975609756},"geometry":{"type":"Point","coordinates":[13.199756,52.551895]}},{"type":"Feature","properties":{"name":"Amorbacher Weg (Berlin)","id":9027253,"weight":19990,"mean":51.875},"geometry":{"type":"Point","coordinates":[13.207777,52.557278]}},{"type":"Feature","properties":{"name":"Mertensstr. (Berlin)","id":9027254,"weight":15505,"mean":31.46067415730337},"geometry":{"type":"Point","coordinates":[13.20934,52.565341]}},{"type":"Feature","properties":{"name":"Siedlung Hakenfelde (Berlin)","id":9027255,"weight":10110,"mean":14.619289340101522},"geometry":{"type":"Point","coordinates":[13.212766,52.570851]}},{"type":"Feature","properties":{"name":"Goltzstr./Rauchstr. (Berlin)","id":9027256,"weight":13870,"mean":103.53658536585365},"geometry":{"type":"Point","coordinates":[13.21297,52.561116]}},{"type":"Feature","properties":{"name":"Mertensstr./Goltzstr. (Berlin)","id":9027257,"weight":4660,"mean":26.08695652173913},"geometry":{"type":"Point","coordinates":[13.21528,52.564687]}},{"type":"Feature","properties":{"name":"Rustweg (Berlin)","id":9027258,"weight":2440,"mean":30},"geometry":{"type":"Point","coordinates":[13.211625,52.575446]}},{"type":"Feature","properties":{"name":"Werderstr. (Berlin)","id":9027259,"weight":14340,"mean":30.570342205323193},"geometry":{"type":"Point","coordinates":[13.210808,52.567762]}},{"type":"Feature","properties":{"name":"Eschenweg (Berlin)","id":9027260,"weight":1280,"mean":164},"geometry":{"type":"Point","coordinates":[13.210171,52.567651]}},{"type":"Feature","properties":{"name":"Hugo-Cassirer-Str. (Berlin)","id":9027261,"weight":9470,"mean":127.27272727272727},"geometry":{"type":"Point","coordinates":[13.218835,52.559923]}},{"type":"Feature","properties":{"name":"Spandauer-See-Brücke (Berlin)","id":9027262,"weight":9470,"mean":127.2},"geometry":{"type":"Point","coordinates":[13.219178,52.556334]}},{"type":"Feature","properties":{"name":"Ashdodstr. (Berlin)","id":9027263,"weight":4400,"mean":73.84615384615384},"geometry":{"type":"Point","coordinates":[13.220608,52.560049]}},{"type":"Feature","properties":{"name":"Papenberger Weg (Berlin)","id":9027291,"weight":2440,"mean":35.172413793103445},"geometry":{"type":"Point","coordinates":[13.210345,52.578272]}},{"type":"Feature","properties":{"name":"Bürgerablage (Berlin)","id":9027292,"weight":2440,"mean":39.310344827586206},"geometry":{"type":"Point","coordinates":[13.207194,52.58438]}},{"type":"Feature","properties":{"name":"Am Kiesteich (Berlin)","id":9027301,"weight":17990,"mean":70},"geometry":{"type":"Point","coordinates":[13.165502,52.551159]}},{"type":"Feature","properties":{"name":"Falkenseer Chaussee/Stadtrandstr. (Berlin)","id":9027302,"weight":15150,"mean":63.09278350515464},"geometry":{"type":"Point","coordinates":[13.153634,52.553441]}},{"type":"Feature","properties":{"name":"Wasserwerk Spandau (Berlin)","id":9027304,"weight":2735,"mean":0},"geometry":{"type":"Point","coordinates":[13.164188,52.556663]}},{"type":"Feature","properties":{"name":"Freudstr./Goldkäferweg (Berlin)","id":9027305,"weight":2770,"mean":9.473684210526315},"geometry":{"type":"Point","coordinates":[13.149149,52.55672]}},{"type":"Feature","properties":{"name":"Waldkrankenhaus (Berlin)","id":9027306,"weight":5710,"mean":0},"geometry":{"type":"Point","coordinates":[13.158376,52.562184]}},{"type":"Feature","properties":{"name":"Griesingerstr./Stadtrandstr. (Berlin)","id":9027307,"weight":6400,"mean":-3.896103896103896},"geometry":{"type":"Point","coordinates":[13.157158,52.560174]}},{"type":"Feature","properties":{"name":"Hochhausweg (Berlin)","id":9027308,"weight":6400,"mean":2.3376623376623376},"geometry":{"type":"Point","coordinates":[13.152818,52.550439]}},{"type":"Feature","properties":{"name":"Spektefeld (Berlin)","id":9027309,"weight":15770,"mean":10.552763819095478},"geometry":{"type":"Point","coordinates":[13.162465,52.548376]}},{"type":"Feature","properties":{"name":"Paul-Gerhardt-Ring (Berlin)","id":9027351,"weight":15770,"mean":8.442211055276381},"geometry":{"type":"Point","coordinates":[13.159555,52.54871]}},{"type":"Feature","properties":{"name":"Im Spektefeld/Schulzentrum (Berlin)","id":9027352,"weight":11085,"mean":3.1343283582089554},"geometry":{"type":"Point","coordinates":[13.156216,52.549031]}},{"type":"Feature","properties":{"name":"Glühwürmchenweg (Berlin)","id":9027353,"weight":6400,"mean":-2.3376623376623376},"geometry":{"type":"Point","coordinates":[13.15509,52.556645]}},{"type":"Feature","properties":{"name":"Wolburgsweg (Berlin)","id":9027354,"weight":5470,"mean":2.3529411764705883},"geometry":{"type":"Point","coordinates":[13.169247,52.555616]}},{"type":"Feature","properties":{"name":"Frankenwaldstr. (Berlin)","id":9027355,"weight":5470,"mean":3.5294117647058822},"geometry":{"type":"Point","coordinates":[13.174744,52.554402]}},{"type":"Feature","properties":{"name":"Friedhof In den Kisseln (Berlin)","id":9027356,"weight":6020,"mean":11.11111111111111},"geometry":{"type":"Point","coordinates":[13.180017,52.553091]}},{"type":"Feature","properties":{"name":"Sandwiesenweg (Berlin)","id":9027358,"weight":5020,"mean":-1.2244897959183674},"geometry":{"type":"Point","coordinates":[13.165724,52.562876]}},{"type":"Feature","properties":{"name":"Bötzow-Bahn (Berlin)","id":9027359,"weight":5020,"mean":-1.2244897959183674},"geometry":{"type":"Point","coordinates":[13.172099,52.560818]}},{"type":"Feature","properties":{"name":"Gliensteig (Berlin)","id":9027360,"weight":5020,"mean":-6.122448979591836},"geometry":{"type":"Point","coordinates":[13.177342,52.55949]}},{"type":"Feature","properties":{"name":"Schwanter Weg (Berlin)","id":9027361,"weight":5020,"mean":-1.2244897959183674},"geometry":{"type":"Point","coordinates":[13.182393,52.558136]}},{"type":"Feature","properties":{"name":"Freudstr. (Berlin)","id":9027362,"weight":8750,"mean":104.1025641025641},"geometry":{"type":"Point","coordinates":[13.149377,52.554148]}},{"type":"Feature","properties":{"name":"Am Bogen (Berlin)","id":9027363,"weight":8750,"mean":110.76923076923077},"geometry":{"type":"Point","coordinates":[13.159502,52.552306]}},{"type":"Feature","properties":{"name":"Beerwinkel (Berlin)","id":9027364,"weight":8750,"mean":113.84615384615384},"geometry":{"type":"Point","coordinates":[13.162054,52.551786]}},{"type":"Feature","properties":{"name":"Spektebrücke (Berlin)","id":9027365,"weight":6530,"mean":4.044943820224719},"geometry":{"type":"Point","coordinates":[13.161499,52.545851]}},{"type":"Feature","properties":{"name":"Radelandstr./Pflegeheim (Berlin)","id":9027372,"weight":5020,"mean":2.4489795918367347},"geometry":{"type":"Point","coordinates":[13.161579,52.563968]}},{"type":"Feature","properties":{"name":"Falkenseer Chaussee/Zeppelinstr. (Berlin)","id":9027401,"weight":28740,"mean":54.75728155339806},"geometry":{"type":"Point","coordinates":[13.184733,52.547562]}},{"type":"Feature","properties":{"name":"Pionierstr./Zeppelinstr. (Berlin)","id":9027402,"weight":13440,"mean":12.452830188679245},"geometry":{"type":"Point","coordinates":[13.185577,52.551508]}},{"type":"Feature","properties":{"name":"Hohenzollernring/Falkenseer Chaussee (Berlin)","id":9027403,"weight":17990,"mean":74.47368421052632},"geometry":{"type":"Point","coordinates":[13.190894,52.546422]}},{"type":"Feature","properties":{"name":"Dyrotzer Str. (Berlin)","id":9027404,"weight":6880,"mean":308.8636363636364},"geometry":{"type":"Point","coordinates":[13.168064,52.541617]}},{"type":"Feature","properties":{"name":"Pausiner Str. (Berlin)","id":9027405,"weight":6870,"mean":2.4489795918367347},"geometry":{"type":"Point","coordinates":[13.188503,52.556152]}},{"type":"Feature","properties":{"name":"Spekteweg (Berlin)","id":9027451,"weight":10750,"mean":6.666666666666667},"geometry":{"type":"Point","coordinates":[13.183492,52.541994]}},{"type":"Feature","properties":{"name":"Merziger Str. (Berlin)","id":9027452,"weight":10750,"mean":6.666666666666667},"geometry":{"type":"Point","coordinates":[13.184068,52.544774]}},{"type":"Feature","properties":{"name":"Westerwaldstr. (Berlin)","id":9027453,"weight":19930,"mean":65.1639344262295},"geometry":{"type":"Point","coordinates":[13.178117,52.54877]}},{"type":"Feature","properties":{"name":"Mülheimer Str. (Berlin)","id":9027454,"weight":17990,"mean":68.94736842105263},"geometry":{"type":"Point","coordinates":[13.172413,52.549932]}},{"type":"Feature","properties":{"name":"Falkenhagener Tor (Berlin)","id":9027455,"weight":6570,"mean":22.105263157894736},"geometry":{"type":"Point","coordinates":[13.190259,52.550203]}},{"type":"Feature","properties":{"name":"Zweibrücker Str. (Berlin)","id":9027456,"weight":17990,"mean":76.57894736842105},"geometry":{"type":"Point","coordinates":[13.188253,52.546898]}},{"type":"Feature","properties":{"name":"Viersener Str. (Berlin)","id":9027457,"weight":6880,"mean":306.8181818181818},"geometry":{"type":"Point","coordinates":[13.175099,52.540109]}},{"type":"Feature","properties":{"name":"Leuthingerweg (Berlin)","id":9027458,"weight":6880,"mean":310.90909090909093},"geometry":{"type":"Point","coordinates":[13.164237,52.541834]}},{"type":"Feature","properties":{"name":"Eiswerderstr. (Berlin)","id":9028101,"weight":19990,"mean":46.25},"geometry":{"type":"Point","coordinates":[13.209805,52.547938]}},{"type":"Feature","properties":{"name":"Kirchhofstr. (Berlin)","id":9028151,"weight":19990,"mean":44.791666666666664},"geometry":{"type":"Point","coordinates":[13.208096,52.545286]}},{"type":"Feature","properties":{"name":"Neue Bergstr. (Berlin)","id":9028152,"weight":19990,"mean":48.75},"geometry":{"type":"Point","coordinates":[13.209882,52.550723]}},{"type":"Feature","properties":{"name":"S Spandau Bhf (Berlin)","id":9029101,"weight":7855,"mean":42.38993710691824},"geometry":{"type":"Point","coordinates":[13.197477,52.534798]}},{"type":"Feature","properties":{"name":"Zeppelinstr./Seegefelder Str. (Berlin)","id":9029102,"weight":17630,"mean":160.47337278106508},"geometry":{"type":"Point","coordinates":[13.18244,52.53849]}},{"type":"Feature","properties":{"name":"Falkenseer Platz (Berlin)","id":9029103,"weight":14780,"mean":35.80110497237569},"geometry":{"type":"Point","coordinates":[13.201979,52.540989]}},{"type":"Feature","properties":{"name":"Borkzeile (Berlin)","id":9029104,"weight":17630,"mean":142.36686390532543},"geometry":{"type":"Point","coordinates":[13.190334,52.536632]}},{"type":"Feature","properties":{"name":"Galenstr. (Berlin)","id":9029105,"weight":24365,"mean":53.53846153846154},"geometry":{"type":"Point","coordinates":[13.194288,52.535693]}},{"type":"Feature","properties":{"name":"Borchertweg (Berlin)","id":9029106,"weight":3210,"mean":236.08695652173913},"geometry":{"type":"Point","coordinates":[13.193104,52.54365]}},{"type":"Feature","properties":{"name":"Dallgower Str. (Berlin)","id":9029152,"weight":17630,"mean":154.4378698224852},"geometry":{"type":"Point","coordinates":[13.186824,52.537656]}},{"type":"Feature","properties":{"name":"Jenneweg (Berlin)","id":9029153,"weight":3210,"mean":225.65217391304347},"geometry":{"type":"Point","coordinates":[13.194976,52.540944]}},{"type":"Feature","properties":{"name":"Galenstr./Hohenzollernring (Berlin)","id":9029154,"weight":3210,"mean":210.63829787234042},"geometry":{"type":"Point","coordinates":[13.197465,52.538717]}},{"type":"Feature","properties":{"name":"Askanierring (Berlin)","id":9029155,"weight":14780,"mean":38.12154696132597},"geometry":{"type":"Point","coordinates":[13.193387,52.545947]}},{"type":"Feature","properties":{"name":"Flankenschanze (Berlin)","id":9029156,"weight":14780,"mean":36.46408839779006},"geometry":{"type":"Point","coordinates":[13.198609,52.542839]}},{"type":"Feature","properties":{"name":"Schulzenstr. (Berlin)","id":9029157,"weight":6880,"mean":302.72727272727275},"geometry":{"type":"Point","coordinates":[13.178756,52.539084]}},{"type":"Feature","properties":{"name":"Wröhmännerpark (Berlin)","id":9029201,"weight":43110,"mean":61.220338983050844},"geometry":{"type":"Point","coordinates":[13.205958,52.542045]}},{"type":"Feature","properties":{"name":"Moritzstr. (Berlin)","id":9029202,"weight":59220,"mean":59.854897218863364},"geometry":{"type":"Point","coordinates":[13.20072,52.538603]}},{"type":"Feature","properties":{"name":"Hügelschanze (Berlin)","id":9029203,"weight":14400,"mean":90.73170731707317},"geometry":{"type":"Point","coordinates":[13.200832,52.548658]}},{"type":"Feature","properties":{"name":"Windmühlenberg (Berlin)","id":9029204,"weight":6570,"mean":25.263157894736842},"geometry":{"type":"Point","coordinates":[13.194345,52.548634]}},{"type":"Feature","properties":{"name":"Kurze Str./Mittelstr. (Berlin)","id":9029251,"weight":6570,"mean":24.210526315789473},"geometry":{"type":"Point","coordinates":[13.200073,52.546221]}},{"type":"Feature","properties":{"name":"Predigergarten (Berlin)","id":9029252,"weight":14400,"mean":91.21951219512195},"geometry":{"type":"Point","coordinates":[13.203689,52.545304]}},{"type":"Feature","properties":{"name":"U Altstadt Spandau (Berlin)","id":9029301,"weight":20370,"mean":31.612903225806452},"geometry":{"type":"Point","coordinates":[13.206763,52.539161]}},{"type":"Feature","properties":{"name":"S+U Rathaus Spandau (Berlin)","id":9029302,"weight":87045,"mean":46.729147141518276},"geometry":{"type":"Point","coordinates":[13.199891,52.535798]}},{"type":"Feature","properties":{"name":"Breite Str./Markt (Berlin)","id":9029303,"weight":7340,"mean":12.452830188679245},"geometry":{"type":"Point","coordinates":[13.204761,52.536036]}},{"type":"Feature","properties":{"name":"Berlin, Staaken Bhf","id":9029305,"weight":5500,"mean":79.51219512195122},"geometry":{"type":"Point","coordinates":[13.141726,52.53774]}},{"type":"Feature","properties":{"name":"S+U Rathaus Spandau (Berlin) [Bus Seegef. Str.]","id":9029371,"weight":21415,"mean":31.304347826086957},"geometry":{"type":"Point","coordinates":[13.198747,52.53492]}},{"type":"Feature","properties":{"name":"Krematorium Ruhleben (Berlin)","id":9030101,"weight":20630,"mean":64.82315112540194},"geometry":{"type":"Point","coordinates":[13.231795,52.527759]}},{"type":"Feature","properties":{"name":"Polizeidirektion 2 (Berlin)","id":9030102,"weight":20630,"mean":66.94533762057878},"geometry":{"type":"Point","coordinates":[13.228245,52.528335]}},{"type":"Feature","properties":{"name":"Güterbahnhof Ruhleben (Berlin)","id":9030151,"weight":20630,"mean":69.26045016077171},"geometry":{"type":"Point","coordinates":[13.221653,52.528673]}},{"type":"Feature","properties":{"name":"Heidereuterstr. (Berlin)","id":9030152,"weight":14050,"mean":92.32876712328768},"geometry":{"type":"Point","coordinates":[13.207656,52.528727]}},{"type":"Feature","properties":{"name":"Freiheit 16-43 (Berlin)","id":9030153,"weight":1380,"mean":46.15384615384615},"geometry":{"type":"Point","coordinates":[13.221418,52.530833]}},{"type":"Feature","properties":{"name":"Pichelswerderstr. (Berlin)","id":9030154,"weight":1380,"mean":32.30769230769231},"geometry":{"type":"Point","coordinates":[13.213783,52.53181]}},{"type":"Feature","properties":{"name":"Werkring (Berlin)","id":9030155,"weight":1380,"mean":13.846153846153847},"geometry":{"type":"Point","coordinates":[13.237576,52.528957]}},{"type":"Feature","properties":{"name":"Tiefwerderweg (Berlin)","id":9030156,"weight":6580,"mean":0.6521739130434783},"geometry":{"type":"Point","coordinates":[13.207303,52.526089]}},{"type":"Feature","properties":{"name":"Klärwerkstr. (Berlin)","id":9030191,"weight":1380,"mean":27.692307692307693},"geometry":{"type":"Point","coordinates":[13.233024,52.529544]}},{"type":"Feature","properties":{"name":"S Stresow (Berlin)","id":9030202,"weight":10990,"mean":23.333333333333332},"geometry":{"type":"Point","coordinates":[13.20913,52.532505]}},{"type":"Feature","properties":{"name":"Stresowplatz (Berlin)","id":9030251,"weight":7340,"mean":11.320754716981131},"geometry":{"type":"Point","coordinates":[13.206765,52.533859]}},{"type":"Feature","properties":{"name":"S Stresow (Berlin) [Vorplatz]","id":9030272,"weight":2980,"mean":0},"geometry":{"type":"Point","coordinates":[13.208667,52.532267]}},{"type":"Feature","properties":{"name":"Ruhlebener Str./Grunewaldstr. (Berlin)","id":9030291,"weight":14050,"mean":89.04109589041096},"geometry":{"type":"Point","coordinates":[13.204022,52.530562]}},{"type":"Feature","properties":{"name":"Brunsbütteler Damm/Ruhlebener Str. (Berlin)","id":9031101,"weight":70480,"mean":73.89541088580576},"geometry":{"type":"Point","coordinates":[13.198193,52.532957]}},{"type":"Feature","properties":{"name":"Ziegelhof (Berlin)","id":9031102,"weight":44400,"mean":36.5704584040747},"geometry":{"type":"Point","coordinates":[13.195345,52.529041]}},{"type":"Feature","properties":{"name":"Päwesiner Weg (Berlin)","id":9031103,"weight":12030,"mean":227.4418604651163},"geometry":{"type":"Point","coordinates":[13.176906,52.533827]}},{"type":"Feature","properties":{"name":"Krumme Gärten (Berlin)","id":9031104,"weight":15570,"mean":12.067039106145252},"geometry":{"type":"Point","coordinates":[13.191883,52.528528]}},{"type":"Feature","properties":{"name":"Metzer Platz (Berlin)","id":9031151,"weight":18410,"mean":56.54676258992806},"geometry":{"type":"Point","coordinates":[13.197167,52.52505]}},{"type":"Feature","properties":{"name":"Elsflether Weg (Berlin)","id":9031152,"weight":12030,"mean":232.09302325581396},"geometry":{"type":"Point","coordinates":[13.19365,52.533902]}},{"type":"Feature","properties":{"name":"Grünhofer Weg (Berlin)","id":9031153,"weight":12030,"mean":230.69767441860466},"geometry":{"type":"Point","coordinates":[13.188208,52.534316]}},{"type":"Feature","properties":{"name":"Nauener Str. (Berlin)","id":9031154,"weight":12030,"mean":231.1627906976744},"geometry":{"type":"Point","coordinates":[13.182455,52.534104]}},{"type":"Feature","properties":{"name":"Egelpfuhlstr. (Berlin)","id":9031155,"weight":12030,"mean":228.8372093023256},"geometry":{"type":"Point","coordinates":[13.170164,52.53358]}},{"type":"Feature","properties":{"name":"Harburger Weg (Berlin)","id":9031156,"weight":12030,"mean":207.90697674418604},"geometry":{"type":"Point","coordinates":[13.163289,52.533297]}},{"type":"Feature","properties":{"name":"Am Omnibushof (Berlin)","id":9032101,"weight":19905,"mean":16.42105263157895},"geometry":{"type":"Point","coordinates":[13.18624,52.51762]}},{"type":"Feature","properties":{"name":"Heerstr./Wilhelmstr. (Berlin)","id":9032102,"weight":19805,"mean":42.42677824267783},"geometry":{"type":"Point","coordinates":[13.179158,52.516693]}},{"type":"Feature","properties":{"name":"Weinmeisterhornweg (Berlin)","id":9032103,"weight":6120,"mean":71.63265306122449},"geometry":{"type":"Point","coordinates":[13.171583,52.511017]}},{"type":"Feature","properties":{"name":"Melanchthonplatz (Berlin)","id":9032104,"weight":17540,"mean":22.11864406779661},"geometry":{"type":"Point","coordinates":[13.188927,52.521664]}},{"type":"Feature","properties":{"name":"Lutoner Str. (Berlin)","id":9032105,"weight":22095,"mean":12.490706319702602},"geometry":{"type":"Point","coordinates":[13.177503,52.525302]}},{"type":"Feature","properties":{"name":"Gatower Str./Heerstr. (Berlin)","id":9032106,"weight":48300,"mean":55.33112582781457},"geometry":{"type":"Point","coordinates":[13.184843,52.51554]}},{"type":"Feature","properties":{"name":"Földerichplatz (Berlin)","id":9032152,"weight":7140,"mean":6.857142857142857},"geometry":{"type":"Point","coordinates":[13.193449,52.521053]}},{"type":"Feature","properties":{"name":"Kolonie Hasenheide (Berlin)","id":9032153,"weight":6540,"mean":-3.3707865168539324},"geometry":{"type":"Point","coordinates":[13.184598,52.523406]}},